     2.11           OBSERVATION DATA    G (GPS)             RINEX VERSION / TYPE
teqc  2014Jan16     NOAA/NOS/NGS/CORS   20140304 00:21:54UTCPGM / RUN BY / DATE
Solaris x86 5.10|AMD64|cc SC5.8 -xarch=amd64|=+|=+          COMMENT
   0.000      (antenna height)                              COMMENT
 +39.99147598 (latitude)                                    COMMENT
-105.26107939 (longitude)                                   COMMENT
1655.057      (elevation)                                   COMMENT
BIT 2 OF LLI FLAGS DATA COLLECTED UNDER A/S CONDITION       COMMENT
DSRC (COGO code)                                            COMMENT
DSRC                                                        MARKER NAME
DSRC                                                        MARKER NUMBER
Seth I. Gutman      ESRL                                    OBSERVER / AGENCY
5051K72749          TRIMBLE NETR9       4.60                REC # / TYPE / VERS
1441107284          TRM57971.00     NONE                    ANT # / TYPE
 -1288338.0320 -4721989.8640  4078321.1770                  APPROX POSITION XYZ
        0.0000        0.0000        0.0000                  ANTENNA: DELTA H/E/N
     1     1                                                WAVELENGTH FACT L1/2
    11    L1    L2    L5    C1    P1    C2    P2    C5    S1# / TYPES OF OBSERV
          S2    S5                                          # / TYPES OF OBSERV
    30.0000                                                 INTERVAL
    16                                                      LEAP SECONDS
 SNR is mapped to RINEX snr flag value [0-9]                COMMENT
  L1 & L2: min(max(int(snr_dBHz/6), 0), 9)                  COMMENT
teqc windowed: start @ 2014 Mar  3 00:00:00.000             COMMENT
teqc windowed: delta = 86400.000 sec                        COMMENT
teqc edited: all SBAS satellites excluded                   COMMENT
teqc edited: all Galileo satellites excluded                COMMENT
teqc edited: all Compass satellites excluded                COMMENT
teqc edited: all QZSS satellites excluded                   COMMENT
  2014     3     3     0     0    0.0000000     GPS         TIME OF FIRST OBS
                                                            END OF HEADER
 14  3  3  0  0  0.0000000  0 12G20G16G23G13G30G06G19G08G07G03G27G10
 127746128.378 6  99542491.49752                  24309275.500
                  24309292.887                          37.900          14.800

 110853045.590 7  86379180.24445                  21094589.320
                  21094597.563                          45.800          35.000

 106473893.073 7  82966885.29345                  20261297.367
                  20261304.645                          47.700          35.900

 106981736.538 8  83362524.63545                  20357916.898
                  20357925.133                          48.000          35.500

 120374579.759 7  93798490.769 7  89890215.149 8  22906492.227
  22906505.324    22906505.477    22906504.406          44.400          47.100
        50.000
 116141797.134 7  90500173.08645                  22101014.008
                  22101025.375                          45.100          31.200

 125146728.069 7  97517054.85143                  23814636.523
                  23814648.402                          43.000          19.300

 131738236.93915                                  25068963.078
                                                        32.200

 117363180.928 7  91451988.172 6                  22333458.563
  22333469.770    22333470.430                          44.800          41.600

 115366463.487 7  89896079.28044                  21953479.531
                  21953490.965                          45.300          28.500

 118330456.345 7  92205643.508 7  88363758.012 8  22517503.680
  22517515.563    22517516.086    22517515.535          43.400          44.400
        49.400
 120556161.831 7  93939923.95344                  22941051.766
                  22941063.727                          44.800          24.900

 14  3  3  0  0 30.0000000  0 12G20G16G23G13G30G06G19G08G07G03G27G10
 127849376.765 6  99622944.61443                  24328924.242
                  24328942.434                          39.200          18.300

 110916170.307 7  86428368.32245                  21106601.469
                  21106609.844                          45.300          35.600

 106501112.045 7  82988094.88546                  20266476.969
                  20266483.395                          47.500          36.400

 106942707.719 7  83332112.59345                  20350489.781
                  20350498.039                          46.900          34.800

 120444385.995 7  93852885.207 7  89942343.148 8  22919776.141
  22919789.000    22919789.398    22919788.328          43.500          46.700
        50.000
 116117317.104 7  90481097.82044                  22096355.195
                  22096366.371                          46.100          29.800

 125046705.248 6  97439115.28042                  23795601.414
                  23795613.086                          41.300          17.800

 131660840.286 5                                  25054233.898
                                                        35.600

 117298826.591 7  91401842.043 6                  22321212.953
  22321223.137    22321223.906                          45.600          41.800

 115288028.979 7  89834961.62244                  21938553.836
                  21938564.805                          45.100          27.600

 118278443.634 7  92165114.254 7  88324917.511 8  22507605.195
  22507617.332    22507616.707    22507617.445          43.100          43.400
        49.500
 120538464.738 7  93926134.05544                  22937684.016
                  22937695.668                          43.700          25.400

 14  3  3  0  1  0.0000000  0 12G20G16G23G13G30G06G19G08G07G03G27G10
 127952604.197 7  99703381.34143                  24348569.164
                  24348586.883                          42.400          19.000

 110979730.480 7  86477895.72645                  21118696.930
                  21118705.063                          46.200          35.700

 106528839.863 7  83009700.97545                  20271753.430
                  20271759.563                          47.300          34.800

 106904113.324 7  83302039.06845                  20343145.367
                  20343153.691                          46.800          34.200

 120514292.007 7  93907357.386 7  89994545.645 8  22933077.727
  22933091.168    22933091.320    22933090.426          43.000          47.000
        49.900
 116093397.841 7  90462459.50644                  22091803.898
                  22091814.305                          44.500          29.700

 124946798.184 6  97361265.91742                  23776589.766
                  23776602.207                          41.000          17.800

 131583475.255 6                                  25039511.305
                                                        39.600

 117234600.660 7  91351795.975 6                  22308990.883
  22309001.371    22309001.758                          45.500          41.100

 115210005.099 7  89774163.91344                  21923707.133
                  21923716.516                          46.100          28.100

 118226893.452 7  92124945.400 7  88286422.384 8  22497795.273
  22497808.293    22497808.293    22497808.387          43.200          44.500
        49.600
 120521349.967 7  93912797.93444                  22934426.820
                  22934438.266                          45.000          25.800

 14  3  3  0  1 30.0000000  0 12G20G16G23G13G30G06G19G08G07G03G27G10
 128055807.767 6  99783799.47042                  24368206.805
                  24368226.867                          38.700          17.800

 111043723.604 7  86527760.48646                  21130874.266
                  21130882.824                          46.200          36.500

 106557076.774 8  83031703.76045                  20277126.594
                  20277132.609                          48.000          35.100

 106865955.357 7  83272305.63145                  20335884.102
                  20335892.371                          46.800          35.100

 120584297.384 7  93961906.974 7  90046822.330 8  22946399.484
  22946412.941    22946412.926    22946412.031          42.700          46.800
        49.900
 116070040.633 7  90444259.16745                  22087358.688
                  22087369.664                          44.700          30.000

 124847009.780 6  97283509.04443                  23757600.391
                  23757612.965                          41.800          19.300

 131506141.770 7 102472414.96253                  25024795.875
                  25024810.738                          42.900          19.900

 117170503.304 7  91301850.101 6                  22296793.758
  22296803.773    22296804.262                          46.800          40.900

 115132394.823 7  89713688.49244                  21908938.008
                  21908948.137                          46.400          26.000

 118175808.180 7  92085138.792 7  88248274.419 8  22488074.742
  22488087.238    22488088.004    22488087.160          44.200          44.500
        50.300
 120504817.652 7  93899915.65744                  22931281.266
                  22931292.465                          44.700          26.400

 14  3  3  0  2  0.0000000  0 12G20G16G23G13G30G06G19G08G07G03G27G10
 128158985.188 6  99864197.33342                  24387840.523
                  24387860.324                          36.600          17.800

 111108147.197 7  86577960.68945                  21143133.711
                  21143141.758                          46.000          35.900

 106585823.103 7  83054103.51045                  20282596.211
                  20282602.723                          46.400          34.500

 106828236.253 7  83242914.15145                  20328706.813
                  20328714.238                          46.500          35.200

 120654401.867 7  94016533.799 7  90099173.035 8  22959739.719
  22959753.477    22959753.480    22959752.703          42.600          46.700
        50.400
 116047247.159 7  90426498.09745                  22083021.039
                  22083032.105                          44.400          30.800

 124747343.682 7  97205847.45443                  23738634.953
                  23738648.199                          42.100          20.900

 131428840.038 6 102412180.13142                  25010085.258
                  25010101.309                          39.700          17.400

 117106535.092 7  91252004.851 7                  22284620.875
  22284630.809    22284631.191                          46.200          42.200

 115055201.566 7  89653538.03544                  21894248.023
                  21894258.676                          44.900          27.600

 118125190.481 7  92045696.542 7  88210475.631 8  22478442.633
  22478454.801    22478455.004    22478454.805          44.700          44.500
        50.600
 120488868.195 7  93887487.56944                  22928246.203
                  22928258.156                          44.700          26.000

 14  3  3  0  2 30.0000000  0 12G20G16G23G13G30G06G19G08G07G03G27G10
 128262133.569 6  99944572.48843                  24407469.508
                  24407487.551                          39.200          18.300

 111172999.055 7  86628494.59545                  21155474.391
                  21155482.773                          46.300          35.800

 106615079.593 7  83076900.77845                  20288164.125
                  20288170.617                          47.000          34.600

 106790958.040 7  83213866.23245                  20321612.852
                  20321620.551                          46.800          35.300

 120724605.180 7  94071237.649 7  90151597.543 8  22973098.852
  22973112.406    22973112.934    22973111.980          43.100          46.700
        49.600
 116025018.874 7  90409177.42245                  22078791.023
                  22078802.758                          44.100          30.200

 124647803.385 7  97128283.91443                  23719692.102
                  23719706.066                          43.200          21.500

 131351570.308 6 102351970.30543                  24995380.711
                  24995396.434                          38.000          18.300

 117042696.060 7  91202260.288 6                  22272472.602
  22272482.809    22272483.332                          46.100          41.800

 114978428.812 7  89593715.24044                  21879638.469
                  21879649.180                          44.100          25.800

 118075042.873 7  92006620.620 7  88173027.898 8  22468899.688
  22468911.719    22468911.418    22468911.688          44.300          43.100
        50.200
 120473502.128 7  93875514.06044                  22925321.539
                  22925333.973                          45.300          25.800

 14  3  3  0  3  0.0000000  0 12G20G16G23G13G30G06G19G08G07G03G27G10
 128365250.183 6 100024922.95243                  24427089.953
                  24427107.563                          37.400          19.600

 111238275.588 7  86679359.41145                  21167896.023
                  21167904.863                          46.000          35.800

 106644845.254 7  83100094.79545                  20293828.469
                  20293834.977                          47.500          35.400

 106754121.841 7  83185162.73145                  20314603.227
                  20314610.840                          45.800          35.400

 120794906.405 7  94126017.814 7  90204095.187 8  22986477.516
  22986490.746    22986491.266    22986490.082          42.400          46.700
        49.700
 116003356.915 7  90392298.06845                  22074669.203
                  22074680.258                          44.300          30.500

 124548391.724 7  97050820.57543                  23700775.039
                  23700789.844                          43.100          23.000

 131274331.854 6 102291784.82643                  24980683.344
                  24980699.961                          40.600          18.300

 116978986.348 7  91152616.492 6                  22260349.031
  22260358.754    22260359.168                          45.300          41.600

 114902079.247 7  89534222.17644                  21865109.594
                  21865118.898                          43.800          25.000

 118025367.280 7  91967912.485 7  88135932.626 8  22459446.320
  22459458.570    22459458.461    22459458.730          45.600          43.600
        49.900
 120458719.159 7  93863994.90544                  22922509.008
                  22922520.617                          45.200          25.700

 14  3  3  0  3 30.0000000  0 12G20G16G23G13G30G06G19G08G07G03G27G10
 128468332.296 6 100105246.53843                  24446707.352
                  24446721.355                          41.300          18.300

 111303974.826 7  86730553.61846                  21180398.438
                  21180406.895                          47.000          36.200

 106675120.355 8  83123685.77345                  20299589.750
                  20299596.215                          48.200          35.400

 106717729.704 7  83156805.25945                  20307677.867
                  20307685.449                          45.000          35.500

 120865305.286 7  94180874.055 7  90256665.746 8  22999873.617
  22999886.996    22999887.582    22999886.512          43.200          46.100
        50.100
 115982262.518 7  90375860.97345                  22070655.445
                  22070666.078                          44.600          31.600

 124449112.174 6  96973460.17843                  23681881.094
                  23681897.098                          41.900          23.600

 131197124.595 6 102231623.60342                  24965990.781
                  24966008.652                          37.800          16.300

 116915406.299 7  91103073.710 6                  22248249.727
  22248259.934    22248260.895                          46.400          41.500

 114826155.763 7  89475061.14844                  21850661.992
                  21850671.172                          45.000          25.900

 117976166.117 7  91929574.051 7  88099191.654 8  22450083.719
  22450095.332    22450095.648    22450095.742          44.600          43.500
        50.100
 120444519.495 7  93852930.24643                  22919805.930
                  22919817.375                          44.600          23.200

 14  3  3  0  4  0.0000000  0 12G20G16G23G13G30G06G19G08G07G03G27G10
 128571377.455 6 100185541.21343                  24466317.445
                  24466329.801                          41.800          18.600

 111370094.197 7  86782075.19645                  21192981.313
                  21192988.762                          46.000          35.100

 106705905.069 7  83147673.86745                  20305447.891
                  20305454.559                          47.800          34.500

 106681783.879 7  83128795.56545                  20300838.328
                  20300846.121                          46.400          35.000

 120935801.393 7  94235806.052 7  90309308.911 8  23013288.617
  23013301.910    23013302.293    23013301.813          42.600          46.300
        50.100
 115961736.965 7  90359867.12345                  22066749.523
                  22066760.223                          45.100          31.900

 124349968.504 6  96896205.65444                  23663015.703
                  23663030.344                          41.700          24.100

 131119948.699 6 102171486.84042                  24951304.977
                  24951322.848                          41.100          17.800

 116851955.919 7  91053631.962 6                  22236176.172
  22236185.727    22236186.609                          47.500          41.700

 114750661.492 7  89416234.57044                  21836295.625
                  21836305.750                          45.800          26.500

 117927441.722 7  91891607.124 7  88062806.703 8  22440811.445
  22440823.363    22440823.375    22440823.469          45.100          44.400
        50.300
 120430903.339 7  93842320.29143                  22917215.039
                  22917226.145                          43.800          22.600

 14  3  3  0  4 30.0000000  0 12G20G16G23G13G30G06G19G08G07G03G27G10
 128674382.779 6 100265804.90142                  24485918.109
                  24485931.730                          39.800          17.400

 111436630.800 7  86833921.88645                  21205642.266
                  21205650.691                          45.100          35.500

 106737199.491 7  83172059.12145                  20311402.938
                  20311408.852                          47.600          34.800

 106646286.015 7  83101134.94545                  20294082.859
                  20294090.688                          45.800          35.700

 121006394.313 7  94290813.508 7  90362024.385 8  23026722.531
  23026735.434    23026735.699    23026735.273          43.100          46.000
        50.000
 115941781.382 7  90344317.42145                  22062951.633
                  22062962.898                          45.700          32.300

 124250963.679 6  96819059.29944                  23644175.109
                  23644189.395                          40.600          25.600

 131042804.300 6 102111374.62543                  24936623.859
                  24936644.617                          39.400          19.000

 116788635.515 7  91004291.511 6                  22224126.453
  22224136.004    22224136.543                          47.200          41.000

 114675599.797 7  89357745.06444                  21822011.672
                  21822023.148                          45.600          28.300

 117879196.478 7  91854013.554 7  88026779.573 8  22431630.961
  22431642.367    22431643.160    22431642.785          45.700          43.900
        50.900
 120417870.860 7  93832165.13744                  22914735.555
                  22914746.941                          44.400          26.000

 14  3  3  0  5  0.0000000  0 12G20G16G23G13G30G06G19G08G07G03G27G10
 128777345.727 6 100346035.65243                  24505511.133
                  24505528.426                          37.900          19.900

 111503581.840 7  86886091.50745                  21218382.281
                  21218390.504                          45.200          35.400

 106769003.606 7  83196841.53645                  20317454.734
                  20317460.465                          46.800          35.400

 106611237.821 7  83073824.71345                  20287413.695
                  20287420.734                          45.900          35.000

 121077083.667 7  94345896.101 7  90414811.876 8  23040173.352
  23040186.699    23040186.938    23040186.570          42.800          45.000
        50.300
 115922397.044 7  90329212.84245                  22059263.195
                  22059273.426                          44.900          32.100

 124152101.125 6  96742023.83244                  23625362.508
                  23625375.168                          40.100          24.500

 130965691.258 6 102051286.87542                  24921949.625
                  24921970.430                          39.700          17.800

 116725445.484 7  90955052.624 6                  22212100.922
  22212111.172    22212111.992                          46.300          41.300

 114600973.752 7  89299595.02344                  21807810.766
                  21807822.332                          46.000          28.100

 117831432.651 7  91816795.093 7  87991111.923 8  22422541.711
  22422553.449    22422554.488    22422553.879          46.000          44.300
        50.300
 120405422.217 7  93822464.94144                  22912366.875
                  22912378.668                          44.300          25.600

 14  3  3  0  5 30.0000000  0 12G20G16G23G13G30G06G19G08G07G03G27G10
 128880263.657 6 100426231.18943                  24525096.531
                  24525116.199                          38.900          19.600

 111570944.913 7  86938582.20545                  21231201.656
                  21231209.707                          45.700          35.200

 106801317.082 7  83222020.88145                  20323603.742
                  20323610.465                          47.200          35.000

 106576641.322 7  83046866.44945                  20280829.617
                  20280837.066                          45.900          35.200

 121147868.790 7  94401053.338 7  90467670.884 8  23053644.070
  23053656.715    23053656.402    23053656.914          42.200          44.600
        50.400
 115903585.456 7  90314554.54845                  22055683.492
                  22055694.461                          45.400          32.400

 124053384.262 6  96665101.86543                  23606576.625
                  23606588.863                          40.200          23.500

 130888609.360 6 101991223.42442                  24907280.570
                  24907302.000                          37.700          17.400

 116662385.895 7  90905915.405 6                  22200100.969
  22200110.980    22200111.512                          45.700          40.200

 114526785.952 7  89241786.46644                  21793693.352
                  21793705.105                          44.300          27.100

 117784152.317 7  91779953.373 7  87955805.327 8  22413545.203
  22413556.531    22413556.289    22413556.387          46.000          42.900
        50.800
 120393557.135 7  93813219.45744                  22910108.414
                  22910120.852                          43.500          24.200

 14  3  3  0  6  0.0000000  0 12G20G16G23G13G30G06G19G08G07G03G27G10
 128983134.391 5 100506390.02442                  24544671.539
                  24544693.637                          35.700          17.800

 111638717.815 7  86991392.24345                  21244097.734
                  21244106.500                          45.800          34.500

 106834140.664 8  83247597.70445                  20329850.172
                  20329857.785                          48.300          35.500

 106542498.767 7  83020261.92545                  20274332.023
                  20274340.211                          45.700          35.600

 121218749.862 7  94456285.341 7  90520601.538 8  23067132.180
  23067144.660    23067144.559    23067144.719          43.900          44.600
        50.400
 115885347.904 7  90300343.55545                  22052212.805
                  22052223.082                          45.100          32.700

 123954816.986 6  96588296.49543                  23587820.148
                  23587830.742                          40.900          23.600

 130811558.945 6 101931184.41843                  24892618.305
                  24892637.824                          39.900          19.300

 116599457.528 7  90856880.424 6                  22188126.133
  22188135.863    22188136.496                          46.500          40.900

 114453040.143 7  89184322.32044                  21779659.641
                  21779670.121                          45.600          28.400

 117737358.333 7  91743490.662 7  87920861.903 8  22404640.008
  22404651.086    22404650.637    22404651.199          46.400          43.300
        50.000
 120382276.110 7  93804429.10344                  22907961.430
                  22907974.402                          44.100          24.600

 14  3  3  0  6 30.0000000  0 12G20G16G23G13G30G06G19G08G07G03G27G10
 129085954.688 6 100586509.59942                  24564237.883
                  24564259.457                          37.900          17.400

 111706897.457 7  87044519.22145                  21257072.000
                  21257080.453                          45.300          35.100

 106867473.731 8  83273571.51345                  20336193.242
                  20336200.613                          48.200          35.000

 106508811.696 7  82994012.32545                  20267921.516
                  20267930.328                          45.300          35.600

 121289726.074 7  94511591.460 7  90573603.235 8  23080638.867
  23080651.684    23080651.324    23080651.484          44.900          45.400
        50.300
 115867684.876 7  90286580.24845                  22048851.633
                  22048862.125                          45.300          31.900

 123856401.979 6  96511609.74144                  23569092.055
                  23569102.523                          40.500          24.700

 130734539.663 6 101871169.70242                  24877962.203
                  24877978.664                          39.000          17.400

 116536660.083 7  90807947.465 6                  22176175.781
  22176186.227    22176186.383                          45.900          41.200

 114379739.100 7  89127204.75544                  21765711.125
                  21765720.609                          46.100          27.200

 117691052.481 7  91707408.315 7  87886283.015 8  22395828.133
  22395839.551    22395839.375    22395839.414          46.300          43.000
        49.200
 120371578.739 7  93796093.54844                  22905926.008
                  22905938.266                          43.700          25.500

 14  3  3  0  7  0.0000000  0 12G20G16G23G13G30G06G19G08G07G03G27G10
 129188722.204 6 100666587.83842                  24583793.586
                  24583815.449                          36.700          16.900

 111775481.420 7  87097961.27145                  21270123.008
                  21270131.613                          45.200          35.200

 106901316.349 7  83299942.38945                  20342633.047
                  20342639.816                          47.200          35.200

 106475582.158 7  82968119.23845                  20261598.578
                  20261606.441                          46.100          35.600

 121360797.162 7  94566971.520 7  90626675.786 8  23094162.711
  23094175.750    23094175.570    23094175.789          42.900          45.700
        50.400
 115850598.096 7  90273265.96545                  22045600.172
                  22045610.793                          44.900          32.500

 123758142.865 6  96435044.48244                  23550393.781
                  23550405.148                          41.700          25.400

 130657551.490 6 101811179.30843                  24863311.047
                  24863325.988                          40.600          18.300

 116473993.802 7  90759116.726 6                  22164251.086
  22164260.785    22164261.160                          46.000          40.700

 114306886.042 7  89070436.28744                  21751847.547
                  21751857.074                          45.800          27.500

 117645237.134 7  91671708.161 7  87852070.400 8  22387109.672
  22387120.785    22387121.238    22387120.395          46.000          45.000
        48.700
 120361465.303 7  93788212.98844                  22904001.344
                  22904013.875                          43.100          24.300

 14  3  3  0  7 30.0000000  0 12G20G16G23G13G30G06G19G08G07G03G27G10
 129291434.165 5 100746622.89142                  24603337.633
                  24603359.680                          34.500          14.800

 111844466.857 7  87151716.13345                  21283250.117
                  21283259.418                          45.300          35.000

 106935668.258 8  83326710.11145                  20349169.836
                  20349176.414                          48.300          35.300

 106442811.685 7  82942583.87245                  20255362.203
                  20255370.094                          44.300          34.600

 121431962.608 7  94622425.081 7  90679818.790 8  23107705.477
  23107718.160    23107718.250    23107718.234          43.800          45.800
        50.500
 115834088.701 7  90260401.58845                  22042458.227
                  22042468.766                          45.400          32.800

 123660043.156 7  96358603.39544                  23531726.063
                  23531736.988                          43.300          24.500

 130580594.421 6 101751212.99042                  24848667.930
                  24848679.730                          39.600          17.800

 116411459.079 7  90710388.482 6                  22152350.602
  22152360.023    22152360.238                          46.200          41.100

 114234483.590 7  89014018.91444                  21738070.133
                  21738079.668                          45.700          28.500

 117599914.340 7  91636391.803 7  87818225.586 8  22378485.148
  22378496.152    22378496.719    22378495.996          45.100          44.000
        49.300
 120351935.367 7  93780787.09044                  22902187.539
                  22902200.832                          43.600          24.100

 14  3  3  0  8  0.0000000  0 12G20G16G23G13G30G06G19G08G07G03G27G10
 129394088.317 6 100826612.89842                  24622874.336
                  24622893.125                          37.300          17.400

 111913851.374 7  87205781.96746                  21296454.133
                  21296463.160                          44.300          36.100

 106970529.788 7  83353874.93545                  20355804.063
                  20355810.000                          47.800          34.400

 106410502.286 7  82917407.77045                  20249214.008
                  20249222.086                          44.600          35.000

 121503222.154 7  94677951.983 7  90733032.073 8  23121265.375
  23121278.480    23121278.848    23121278.188          42.600          45.600
        50.200
 115818157.595 7  90247987.83445                  22039426.484
                  22039436.535                          46.000          32.300

 123562106.045 7  96282289.01344                  23513088.922
                  23513100.246                          43.100          25.900

 130503668.506 6 101691271.02143                  24834028.734
                  24834041.797                          39.600          18.600

 116349056.459 7  90661763.173 6                  22140475.906
  22140485.922    22140485.766                          46.200          40.700

 114162535.091 7  88957955.26444                  21724378.344
                  21724388.852                          46.300          29.300

 117555086.496 7  91601461.113 7  87784750.373 8  22369953.977
  22369965.609    22369965.664    22369965.879          44.200          43.700
        49.800
 120342989.356 7  93773816.22843                  22900485.953
                  22900497.523                          44.000          23.000

 14  3  3  0  8 30.0000000  0 12G20G16G23G13G30G06G19G08G07G03G27G10
 129496681.321 6 100906555.30242                  24642397.672
                  24642414.934                          36.600          16.300

 111983631.883 7  87260156.37946                  21309733.211
                  21309741.828                          46.200          36.400

 107005899.808 7  83381435.98445                  20362534.828
                  20362541.168                          47.900          35.300

 106378655.530 7  82892592.18245                  20243153.453
                  20243161.957                          44.800          35.400

 121574575.024 7  94733551.587 7  90786315.018 8  23134843.516
  23134856.473    23134857.125    23134856.641          44.300          46.100
        50.500
 115802805.304 7  90236025.11345                  22036504.859
                  22036515.559                          44.500          31.900

 123464334.793 7  96206103.86844                  23494483.492
                  23494494.762                          43.600          24.800

 130426773.233 6 101631352.93043                  24819394.914
                  24819411.113                          39.200          19.000

 116286785.607 7  90613240.546 6                  22128626.148
  22128636.410    22128637.039                          45.000          41.500

 114091042.862 7  88902247.15444                  21710773.445
                  21710784.188                          45.300          28.600

 117510755.337 7  91566917.450 7  87751646.048 8  22361518.063
  22361530.102    22361529.824    22361529.566          43.400          44.700
        49.500
 120334626.555 7  93767299.80843                  22898893.570
                  22898906.059                          42.800          22.300

 14  3  3  0  9  0.0000000  0 12G20G16G23G13G30G06G19G08G07G03G27G10
 129599210.794 6 100986448.36042                  24661908.750
                  24661923.727                          40.000          17.800

 112053806.072 7  87314837.54946                  21323087.531
                  21323095.898                          46.600          36.500

 107041778.742 8  83409393.59445                  20369362.422
                  20369369.262                          48.800          34.900

 106347273.034 7  82868138.34745                  20237181.484
                  20237190.242                          45.200          34.900

 121646020.841 7  94789223.633 7  90839667.381 8  23148438.680
  23148452.316    23148452.277    23148452.207          43.500          45.900
        50.800
 115788033.329 7  90224514.55245                  22033694.109
                  22033704.707                          44.800          32.400

 123366732.771 7  96130050.58543                  23475910.320
                  23475921.586                          42.500          22.500

 130349908.759 7 101571458.72443                  24804769.727
                  24804786.027                          42.100          21.100

 116224646.681 7  90564820.715 6                  22116801.625
  22116811.492    22116812.059                          45.700          41.300

 114020010.027 7  88846897.02144                  21697256.289
                  21697267.055                          45.000          29.200

 117466923.065 7  91532762.542 7  87718914.279 8  22353177.336
  22353188.691    22353189.516    22353188.262          45.600          44.800
        49.600
 120326846.978 7  93761237.82143                  22897412.805
                  22897425.125                          43.400          22.800

 14  3  3  0  9 30.0000000  0 12G20G16G23G13G30G06G19G08G07G03G27G10
 129701674.441 6 101066290.02542                  24681406.859
                  24681422.457                          40.200          16.300

 112124371.111 7  87369823.29046                  21336514.938
                  21336523.535                          47.000          37.000

 107078166.684 8  83437747.82645                  20376286.961
                  20376293.164                          48.600          35.000

 106316357.028 7  82844048.01745                  20231298.727
                  20231306.996                          45.600          35.000

 121717559.675 7  94844968.160 7  90893089.211 8  23162052.492
  23162065.703    23162065.766    23162065.809          44.000          45.700
        51.100
 115773842.562 7  90213456.87945                  22030993.523
                  22031003.707                          45.200          32.200

 123269303.579 7  96054131.93143                  23457369.938
                  23457380.246                          42.600          20.900

 130273075.230 6 101511588.68542                  24790147.484
                  24790165.887                          40.200          17.400

 116162640.421 7  90516504.242 6                  22105002.563
  22105012.063    22105012.754                          45.800          41.800

 113949439.784 7  88791907.34344                  21683826.695
                  21683837.605                          46.100          29.800

 117423592.157 7  91498998.300 7  87686556.919 8  22344931.781
  22344942.578    22344943.309    22344942.172          47.500          45.800
        49.300
 120319650.829 7  93755630.48244                  22896043.891
                  22896055.887                          43.000          24.900

 14  3  3  0 10  0.0000000  0 12G20G16G23G13G30G06G19G08G07G03G27G10
 129804069.602 6 101146078.33043                  24700892.484
                  24700908.395                          41.800          19.300

 112195324.316 7  87425111.50046                  21350016.828
                  21350025.516                          46.900          37.000

 107115063.424 8  83466498.53245                  20383308.063
                  20383314.656                          48.000          34.400

 106285909.298 7  82820322.55545                  20225504.641
                  20225512.578                          45.400          35.000

 121789191.049 7  94900784.789 7  90946580.137 8  23175683.695
  23175696.570    23175696.848    23175696.773          43.100          45.800
        50.700
 115760234.417 7  90202853.21045                  22028403.711
                  22028414.266                          45.900          32.900

 123172050.705 7  95978350.63443                  23438862.969
                  23438872.438                          42.700          19.600

 130196272.658 7 101451742.69643                  24775533.563
                  24775551.215                          42.600          21.100

 116100767.091 7  90468291.357 6                  22093227.258
  22093237.645    22093238.379                          46.000          41.300

 113879335.348 7  88737280.63244                  21670487.125
                  21670496.883                          45.400          29.700

 117380764.656 7  91465626.325 7  87654575.475 8  22336781.773
  22336792.691    22336792.832    22336792.051          46.200          44.900
        49.100
 120313037.837 7  93750477.56344                  22894785.695
                  22894798.074                          44.100          26.000

 14  3  3  0 10 30.0000000  0 12G20G16G23G13G30G06G19G08G07G03G27G10
 129906393.746 6 101225811.18043                  24720362.992
                  24720381.691                          40.900          18.600

 112266663.032 7  87480700.09945                  21363592.008
                  21363600.285                          47.500          35.500

 107152468.489 7  83495645.35045                  20390425.656
                  20390432.938                          47.600          34.900

 106255931.620 7  82796963.36045                  20219799.672
                  20219807.926                          44.700          34.500

 121860914.539 7  94956673.181 7  91000139.850 8  23189331.648
  23189345.168    23189344.945    23189344.930          42.400          46.300
        49.800
 115747209.208 7  90192703.78245                  22025925.547
                  22025936.016                          46.400          32.700

 123074977.480 7  95902709.34743                  23420389.750
                  23420400.262                          42.100          20.400

 130119500.721 6 101391920.65843                  24760922.594
                  24760940.500                          41.100          19.300

 116039026.918 7  90420182.230 6                  22081479.063
  22081488.820    22081489.230                          45.700          41.400

 113809699.644 7  88683019.15545                  21657235.656
                  21657245.570                          46.600          30.500

 117338442.612 7  91432648.205 7  87622971.470 8  22328728.211
  22328739.426    22328739.391    22328738.785          46.600          45.100
        48.800
 120307007.750 7  93745778.85444                  22893638.508
                  22893651.063                          44.500          26.000

 14  3  3  0 11  0.0000000  0 12G20G16G23G13G30G06G19G08G07G03G27G10
 130008644.646 6 101305487.03542                  24739821.063
                  24739840.047                          39.000          17.800

 112338384.995 7  87536587.35046                  21377240.477
                  21377248.496                          47.200          36.400

 107190382.118 7  83525188.44145                  20397640.313
                  20397647.086                          47.800          34.400

 106226425.899 7  82773971.94745                  20214185.352
                  20214193.383                          45.000          35.400

 121932729.993 7  95012633.247 7  91053768.264 8  23202998.195
  23203011.609    23203011.859    23203011.023          43.100          47.000
        48.800
 115734768.719 7  90183009.98645                  22023557.789
                  22023568.020                          45.900          33.500

 122978087.631 7  95827210.94243                  23401952.758
                  23401963.789                          43.000          22.900

 130042759.767 7 101332122.72542                  24746320.359
                  24746333.734                          42.600          16.900

 115977420.482 7  90372177.328 6                  22069755.773
  22069765.660    22069765.859                          46.000          41.200

 113740535.720 7  88629125.30045                  21644074.133
                  21644084.219                          46.000          31.100

 117296628.357 7  91400065.792 7  87591746.670 8  22320770.797
  22320782.074    22320782.391    22320781.371          45.200          45.800
        48.700
 120301560.513 7  93741534.31744                  22892601.313
                  22892614.066                          43.600          24.600

 14  3  3  0 11 30.0000000  0 12G20G16G23G13G30G06G19G08G07G03G27G10
 130110819.805 6 101385103.77943                  24759264.898
                  24759283.191                          40.100          19.600

 112410487.505 7  87592771.12645                  21390960.867
                  21390969.465                          47.000          35.500

 107228804.215 7  83555127.73545                  20404952.156
                  20404958.355                          46.600          34.300

 106197394.205 7  82751349.89345                  20208660.352
                  20208669.102                          43.300          35.100

 122004637.206 7  95068664.809 7  91107465.189 8  23216681.531
  23216694.785    23216695.004    23216694.461          43.100          46.500
        49.300
 115722913.543 7  90173772.27145                  22021302.141
                  22021312.121                          45.100          33.400

 122881384.519 7  95751858.08743                  23383551.008
                  23383561.523                          42.000          22.800

 129966049.874 6 101272348.96643                  24731721.930
                  24731735.965                          41.100          18.300

 115915948.213 7  90324276.976 6                  22058057.383
  22058066.832    22058067.066                          46.200          41.400

 113671846.549 7  88575601.39645                  21631002.742
                  21631013.027                          46.600          31.400

 117255324.024 7  91367880.709 7  87560902.645 8  22312910.906
  22312922.484    22312922.953    22312921.875          45.600          46.500
        49.100
 120296695.972 7  93737743.78744                  22891675.555
                  22891687.363                          43.900          25.400

 14  3  3  0 12  0.0000000  0 12G20G16G23G13G30G06G19G08G07G03G27G10
 130212915.893 6 101464659.00442                  24778693.195
                  24778711.602                          39.200          17.800

 112482967.501 7  87649249.03345                  21404753.492
                  21404762.258                          45.800          35.400

 107267733.716 8  83585462.40145                  20412359.977
                  20412366.066                          48.200          34.600

 106168837.597 7  82729098.03845                  20203226.203
                  20203234.605                          44.900          35.200

 122076635.257 7  95124767.164 7  91161229.939 8  23230382.703
  23230395.613    23230395.555    23230395.832          45.900          45.800
        50.200
 115711644.100 7  90164990.95645                  22019157.039
                  22019168.387                          45.600          32.700

 122784871.215 6  95676653.12943                  23365184.063
                  23365195.082                          39.700          22.000

 129889370.759 6 101212599.24243                  24717130.180
                  24717142.410                          41.100          18.600

 115854609.730 7  90276480.884 6                  22046385.234
  22046394.801    22046394.793                          47.300          41.100

 113603634.518 7  88522449.28245                  21618022.461
                  21618032.668                          46.000          30.800

 117214531.086 7  91336094.102 7  87530440.508 8  22305148.383
  22305159.863    22305160.652    22305159.105          46.400          46.900
        49.700
 120292413.337 7  93734406.71544                  22890860.789
                  22890872.141                          43.700          25.500

 14  3  3  0 12 30.0000000  0 12G20G16G23G13G30G06G19G08G07G03G27G10
 130314930.710 6 101544150.86643                  24798106.820
                  24798125.695                          38.600          19.600

 112555822.473 7  87706019.13845                  21418617.281
                  21418625.820                          46.200          34.600

 107307170.471 7  83616192.32845                  20419864.719
                  20419871.227                          47.400          34.300

 106140757.737 7  82707217.65945                  20197882.805
                  20197890.527                          42.900          34.700

 122148723.878 7  95180940.099 7  91215062.323 8  23244101.266
  23244113.016    23244113.395    23244113.906          45.400          45.300
        50.100
 115700961.511 7  90156666.95745                  22017124.195
                  22017135.426                          46.100          33.500

 122688550.939 6  95601598.61943                  23346854.516
                  23346866.465                          39.500          22.000

 129812722.182 6 101152873.23543                  24702544.281
                  24702556.418                          41.700          18.600

 115793405.539 7  90228789.416 6                  22034738.734
  22034747.363    22034748.078                          46.700          41.800

 113535902.725 7  88469671.37645                  21605133.109
                  21605143.336                          45.300          30.200

 117174251.708 7  91304707.669 7  87500361.871 8  22297483.492
  22297494.770    22297495.184    22297494.461          47.200          45.900
        49.500
 120288712.406 7  93731522.91344                  22890156.922
                  22890168.824                          43.400          26.000

 14  3  3  0 13  0.0000000  0 12G20G16G23G13G30G06G19G08G07G03G27G10
 130416861.975 6 101623577.64743                  24817504.328
                  24817522.262                          39.900          19.600

 112629049.982 7  87763079.54145                  21432551.891
                  21432560.023                          45.800          34.400

 107347114.379 7  83647317.45845                  20427465.242
                  20427472.563                          46.600          34.400

 106113156.654 7  82685710.35045                  20192631.070
                  20192638.891                          45.000          35.900

 122220902.850 7  95237183.448 7  91268962.186 8  23257836.359
  23257848.559    23257848.523    23257848.918          43.900          44.700
        49.200
 115690866.356 7  90148800.67145                  22015203.438
                  22015213.941                          45.200          33.300

 122592427.385 6  95526697.38243                  23328562.867
                  23328574.805                          39.800          22.200

 129736104.405 7 101093171.32243                  24687964.750
                  24687979.195                          42.200          19.900

 115732335.729 7  90181202.659 7                  22023116.953
  22023126.211    22023126.617                          46.400          42.300

 113468653.626 7  88417269.59145                  21592336.492
                  21592345.770                          46.200          30.900

 117134487.892 7  91273723.006 7  87470668.249 8  22289916.313
  22289927.594    22289927.270    22289927.016          46.100          45.900
        49.400
 120285593.071 7  93729092.32144                  22889563.180
                  22889576.203                          42.600          26.800

 14  3  3  0 13 30.0000000  0 12G20G16G23G13G30G06G19G08G07G03G27G10
 130518706.603 5 101702936.87842                  24836883.484
                  24836901.086                          35.300          16.300

 112702646.817 7  87820427.72345                  21446557.055
                  21446565.070                          45.200          33.400

 107387564.873 7  83678837.32445                  20435162.984
                  20435170.434                          47.300          34.800

 106086035.634 7  82664577.11045                  20187469.984
                  20187478.219                          46.000          35.700

 122293171.529 7  95293496.698 7  91322929.057 8  23271588.156
  23271600.559    23271600.363    23271600.523          44.100          44.400
        49.400
 115681359.754 7  90141392.98445                  22013394.328
                  22013405.043                          46.000          33.200

 122496503.760 6  95451951.90243                  23310308.984
                  23310319.695                          40.800          22.500

 129659517.124 6 101033493.16443                  24673389.102
                  24673406.016                          40.800          20.100

 115671400.684 7  90133720.908 7                  22011521.328
  22011531.301    22011531.305                          46.900          42.600

 113401890.127 7  88365246.19045                  21579631.406
                  21579641.145                          46.600          30.500

 117095241.459 7  91243141.505 7  87441360.983 8  22282448.367
  22282459.164    22282459.137    22282458.004          45.900          46.000
        49.500
 120283054.825 7  93727114.52544                  22889081.008
                  22889093.301                          46.200          28.600

 14  3  3  0 14  0.0000000  0 12G20G16G23G13G30G06G19G08G07G03G27G10
 130620462.86516 101782227.33552                  24856248.008
                  24856264.223                          37.500          16.900

 112776610.890 7  87878062.06145                  21460631.250
                  21460639.633                          44.200          33.100

 107428522.844 8  83710752.61945                  20442957.617
                  20442964.375                          48.400          35.200

 106059397.436 7  82643820.11345                  20182400.492
                  20182408.621                          45.600          35.200

 122365530.574 7  95349880.357 7  91376963.402 8  23285358.328
  23285370.426    23285369.832    23285370.523          44.100          44.700
        49.000
 115672442.991 7  90134444.92545                  22011697.617
                  22011708.020                          45.400          33.500

 122400784.220 7  95377365.48244                  23292094.797
                  23292104.902                          42.400          25.900

 129582961.056 6 100973839.25343                  24658822.039
                  24658837.996                          39.900          20.400

 115610601.492 8  90086345.026 7                  21999952.172
  21999962.027    21999962.297                          48.000          43.600

 113335616.034 7  88313604.16545                  21567019.641
                  21567029.973                          46.300          30.900

 117056515.245 7  91212965.318 7  87412442.177 8  22275078.430
  22275089.492    22275089.910    22275088.777          45.800          46.300
        49.000
 120281097.834 7  93725589.65544                  22888707.641
                  22888720.566                          44.600          26.500

 14  3  3  0 14 30.0000000  0 12G20G16G23G13G30G06G19G08G07G03G27G10
 130722127.415 5 101861446.22742                  24875593.055
                  24875608.109                          34.100          15.600

 112850939.042 7  87935980.09345                  21474775.727
                  21474783.801                          45.800          33.600

 107469986.629 8  83743062.06245                  20450848.203
                  20450853.875                          48.100          34.900

 106033242.569 7  82623439.72745                  20177423.219
                  20177431.570                          45.400          34.800

 122437978.528 7  95406333.305 7  91431064.156 8  23299144.398
  23299156.930    23299156.457    23299157.086          45.500          44.600
        49.300
 115664115.671 7  90127956.18445                  22010112.398
                  22010122.332                          46.300          32.900

 122305271.402 7  95302940.13444                  23273918.930
                  23273928.832                          42.300          26.400

 129506435.307 6 100914209.05443                  24644259.078
                  24644275.598                          39.500          20.100

 115549937.519 8  90039074.516 7                  21988408.211
  21988417.680    21988418.129                          49.100          43.800

 113269833.112 7  88262344.85445                  21554501.656
                  21554511.488                          46.500          30.900

 117018310.109 7  91183195.187 7  87383912.489 8  22267808.445
  22267819.551    22267819.922    22267818.668          45.700          47.000
        50.000
 120279720.857 7  93724516.72544                  22888445.555
                  22888456.949                          44.000          26.200

 14  3  3  0 15  0.0000000  0 12G20G16G23G13G30G06G19G08G07G03G27G10
 130823698.116 6 101940592.05442                  24894921.633
                  24894936.781                          38.900          14.800

 112925628.965 7  87994180.02545                  21488989.086
                  21488997.137                          44.600          33.700

 107511956.113 8  83775765.53145                  20458834.023
                  20458839.891                          48.400          33.900

 106007573.122 7  82603437.58145                  20172538.883
                  20172546.086                          45.800          35.500

 122510515.503 7  95462855.590 7  91485231.366 8  23312948.203
  23312960.055    23312960.086    23312960.660          46.000          45.000
        49.900
 115656378.864 7  90121927.56245                  22008639.945
                  22008650.145                          46.000          33.600

 122209968.706 7  95228678.55544                  23255783.672
                  23255792.227                          42.800          26.200

 129429940.139 6 100854602.69742                  24629701.578
                  24629718.535                          37.600          17.800

 115489409.414 8  89991909.861 7                  21976890.195
  21976900.086    21976900.551                          48.900          43.600

 113204544.599 7  88211470.79045                  21542077.695
                  21542087.660                          46.000          31.100

 116980628.385 7  91153832.907 7  87355773.653 8  22260637.914
  22260648.930    22260649.699    22260648.445          46.300          47.400
        49.800
 120278923.877 7  93723895.72444                  22888294.320
                  22888304.461                          44.300          25.800

 14  3  3  0 15 30.0000000  0 12G20G16G23G13G30G06G19G08G07G03G27G10
 130925172.697 6 102019662.97042                  24914231.555
                  24914247.730                          39.800          15.600

 113000677.620 7  88052659.48845                  21503270.305
                  21503278.555                          45.700          34.800

 107554431.026 8  83808862.84245                  20466916.633
                  20466922.531                          48.300          34.000

 105982390.863 7  82583815.06645                  20167747.156
                  20167754.715                          46.800          35.500

 122583141.101 7  95519446.981 7  91539464.774 8  23326768.414
  23326780.375    23326780.500    23326781.246          45.600          43.900
        49.800
 115649233.847 7  90116360.08245                  22007280.875
                  22007292.098                          45.200          34.200

 122114879.903 7  95154583.66344                  23237688.281
                  23237697.543                          42.600          27.100

 129353475.331 6 100795019.98543                  24615151.211
                  24615166.898                          39.300          20.400

 115429017.593 8  89944851.395 7                  21965397.766
  21965407.441    21965408.180                          48.300          43.700

 113139753.347 7  88160984.20245                  21529748.313
                  21529758.598                          46.800          31.000

 116943471.967 7  91124879.948 7  87328027.100 8  22253566.938
