     2.11           OBSERVATION DATA    G (GPS)             RINEX VERSION / TYPE
teqc  2014Jan16     NOAA/NOS/NGS/CORS   20140305 00:20:19UTCPGM / RUN BY / DATE
Solaris x86 5.10|AMD64|cc SC5.8 -xarch=amd64|=+|=+          COMMENT
   0.000      (antenna height)                              COMMENT
 +39.99147598 (latitude)                                    COMMENT
-105.26107939 (longitude)                                   COMMENT
1655.057      (elevation)                                   COMMENT
BIT 2 OF LLI FLAGS DATA COLLECTED UNDER A/S CONDITION       COMMENT
DSRC (COGO code)                                            COMMENT
DSRC                                                        MARKER NAME
DSRC                                                        MARKER NUMBER
Seth I. Gutman      ESRL                                    OBSERVER / AGENCY
5051K72749          TRIMBLE NETR9       4.60                REC # / TYPE / VERS
1441107284          TRM57971.00     NONE                    ANT # / TYPE
 -1288338.0320 -4721989.8640  4078321.1770                  APPROX POSITION XYZ
        0.0000        0.0000        0.0000                  ANTENNA: DELTA H/E/N
     1     1                                                WAVELENGTH FACT L1/2
    11    L1    L2    L5    C1    P1    C2    P2    C5    S1# / TYPES OF OBSERV
          S2    S5                                          # / TYPES OF OBSERV
    30.0000                                                 INTERVAL
    16                                                      LEAP SECONDS
 SNR is mapped to RINEX snr flag value [0-9]                COMMENT
  L1 & L2: min(max(int(snr_dBHz/6), 0), 9)                  COMMENT
teqc windowed: start @ 2014 Mar  4 00:00:00.000             COMMENT
teqc windowed: delta = 86400.000 sec                        COMMENT
teqc edited: all SBAS satellites excluded                   COMMENT
teqc edited: all Galileo satellites excluded                COMMENT
teqc edited: all Compass satellites excluded                COMMENT
teqc edited: all QZSS satellites excluded                   COMMENT
  2014     3     4     0     0    0.0000000     GPS         TIME OF FIRST OBS
                                                            END OF HEADER
 14  3  4  0  0  0.0000000  0 11G20G16G23G30G13G19G08G07G27G03G10
 128606633.369 7 100213060.54544                  24473032.438
                  24473050.023                          42.100          25.300

 111399703.377 8  86805140.14246                  21198619.789
                  21198628.750                          49.800          39.500

 106718413.918 8  83157356.81747                  20307811.469
                  20307819.355                          50.100          42.100

 116148147.570 7  90505163.521 7  86734113.140 8  22102226.461
  22102238.762    22102239.063    22102238.871          46.600          47.800
        52.000
 106671129.555 8  83120499.66346                  20298809.969
                  20298818.414                          50.300          41.600

 124319171.266 6  96872099.81044                  23657123.156
                  23657136.762                          41.900          28.600

 131068129.788 6 102131111.38843                  24941440.102
                  24941459.266                          41.100          20.100

 116835817.321 7  91041086.730 7                  22233108.500
  22233119.004    22233119.133                          47.600          43.100

 117916470.587 7  91882953.440 7  88054525.168 8  22438699.883
  22438712.637    22438713.145    22438712.949          46.200          46.300
        50.700
 114740302.957 7  89408188.90345                  21834337.102
                  21834348.883                          46.800          33.300

 120431694.748 7  93842999.37844                  22917378.523
                  22917391.637                          45.300          29.200

 14  3  4  0  0 30.0000000  0 11G20G16G23G30G13G19G08G07G27G03G10
 128709640.495 7 100293325.61743                  24492634.648
                  24492651.313                          42.500          23.900

 111466420.488 8  86857127.49046                  21211315.773
                  21211324.441                          49.900          38.600

 106749897.895 8  83181889.78546                  20313802.555
                  20313809.934                          49.800          41.500

 116206888.753 7  90550935.856 7  86777978.282 8  22113404.430
  22113416.793    22113416.887    22113416.988          46.400          47.000
        51.700
 106635758.130 8  83092937.57746                  20292078.742
                  20292087.285                          50.000          41.500

 124220224.002 6  96794998.36544                  23638293.375
                  23638307.137                          40.900          27.000

 130991006.569 6 102071015.58643                  24926763.797
                  24926782.523                          41.000          19.300

 116772525.192 7  90991768.325 7                  22221064.109
  22221074.227    22221074.180                          47.600          43.500

 117868327.511 7  91845439.481 7  88018574.321 8  22429539.289
  22429551.539    22429552.168    22429552.320          46.900          46.600
        51.200
 114665255.087 7  89349710.18645                  21820056.023
                  21820067.113                          47.100          32.700

 120418738.212 7  93832903.41944                  22914913.422
                  22914926.344                          45.000          29.300

 14  3  4  0  1  0.0000000  0 11G20G16G23G30G13G19G08G07G27G03G10
 128812604.413 6 100373557.05443                  24512227.320
                  24512246.273                          38.600          21.100

 111533551.506 8  86909437.37046                  21224090.383
                  21224099.168                          50.000          37.900

 106781891.569 8  83206819.92546                  20319890.516
                  20319897.848                          49.500          41.300

 116265775.727 7  90596821.809 7  86821952.311 8  22124610.086
  22124622.879    22124623.117    22124623.512          46.300          47.800
        51.400
 106600837.256 8  83065726.56646                  20285433.477
                  20285441.996                          49.500          41.700

 124121420.275 6  96718008.78444                  23619490.961
                  23619505.199                          41.400          26.400

 130913915.194 6 102010944.62843                  24912092.016
                  24912112.734                          39.900          19.300

 116709363.530 7  90942551.609 7                  22209044.469
  22209055.258    22209055.055                          46.500          43.500

 117820666.561 7  91808301.209 7  87982983.512 8  22420469.242
  22420481.504    22420481.586    22420482.559          47.500          45.700
        50.800
 114590643.185 7  89291571.17245                  21805857.563
                  21805868.410                          47.100          32.000

 120406365.434 7  93823262.35544                  22912558.750
                  22912571.379                          44.500          29.500

 14  3  4  0  1 30.0000000  0 11G20G16G23G30G13G19G08G07G27G03G10
 128915522.373 6 100453752.76643                  24531812.781
                  24531831.090                          40.600          22.900

 111601093.619 8  86962067.58846                  21236943.250
                  21236951.898                          50.100          38.800

 106814394.861 8  83232147.17446                  20326075.828
                  20326082.824                          50.200          41.000

 116324807.838 7  90642820.846 7  86866034.716 8  22135844.031
  22135855.785    22135855.965    22135856.480          46.600          47.100
        51.500
 106566368.567 8  83038867.90346                  20278874.477
                  20278883.023                          50.100          41.400

 124022763.394 6  96641133.60944                  23600717.711
                  23600730.852                          40.800          26.700

 130836855.448 6 101950898.27843                  24897429.203
                  24897449.066                          39.900          20.900

 116646332.673 7  90893436.794 7                  22197050.102
  22197060.707    22197060.633                          46.300          44.300

 117773489.802 7  91771540.235 7  87947754.275 8  22411491.617
  22411504.023    22411503.805    22411504.426          47.200          46.100
        50.500
 114516470.182 7  89233774.16445                  21791742.820
                  21791753.684                          46.500          33.200

 120394576.290 7  93814076.04344                  22910315.664
                  22910328.383                          44.700          29.100

 14  3  4  0  2  0.0000000  0 11G20G16G23G30G13G19G08G07G27G03G10
 129018392.060 6 100533910.71343                  24551388.602
                  24551407.016                          41.300          22.500

 111669044.354 8  87015016.19946                  21249873.781
                  21249882.770                          49.700          38.700

 106847407.846 8  83257871.58346                  20332358.461
                  20332365.414                          49.900          41.600

 116383984.588 7  90688932.591 7  86910225.139 8  22147105.188
  22147117.211    22147117.281    22147117.266          46.800          47.200
        51.400
 106532354.112 8  83012363.18646                  20272400.992
                  20272409.844                          48.700          41.800

 123924256.749 6  96564375.47544                  23581972.102
                  23581985.602                          41.100          28.000

 130759827.146 6 101890876.53943                  24882771.078
                  24882791.219                          39.500          21.700

 116583432.775 7  90844424.049 7                  22185080.227
  22185090.883    22185091.320                          45.100          43.400

 117726799.547 7  91735158.364 7  87912888.335 8  22402606.742
  22402618.820    22402619.285    22402618.910          47.600          46.900
        49.800
 114442739.178 7  89176321.56945                  21777711.977
                  21777722.875                          47.000          33.200

 120383370.938 7  93805344.66244                  22908183.297
                  22908196.102                          44.700          28.500

 14  3  4  0  2 30.0000000  0 11G20G16G23G30G13G19G08G07G27G03G10
 129121210.052 6 100614028.55442                  24570952.711
                  24570970.598                          36.000          17.800

 111737400.809 8  87068280.96646                  21262881.797
                  21262890.535                          49.200          38.700

 106880929.937 8  83283992.68846                  20338737.375
                  20338744.336                          50.700          41.600

 116443305.306 7  90735156.506 7  86954523.067 8  22158393.555
  22158405.535    22158405.414    22158405.398          47.500          47.000
        51.000
 106498795.181 8  82986213.42346                  20266015.219
                  20266024.086                          49.300          41.300

 123825903.680 6  96487737.01344                  23563255.594
                  23563269.137                          41.300          28.200

 130682830.014 6 101830879.07243                  24868119.234
                  24868137.754                          41.000          22.300

 116520663.719 7  90795513.253 7                  22173135.953
  22173146.605    22173147.094                          46.500          44.500

 117680597.785 7  91699157.119 7  87878387.185 8  22393815.008
  22393827.141    22393827.664    22393826.527          47.000          46.600
        49.600
 114369452.707 7  89119215.36145                  21763766.109
                  21763777.629                          47.300          33.000

 120372749.215 7  93797068.03644                  22906161.328
                  22906174.953                          44.200          29.000

 14  3  4  0  3  0.0000000  0 11G20G16G23G30G13G19G08G07G27G03G10
 129223974.414 6 100694104.41042                  24590508.961
                  24590526.152                          38.300          17.400

 111806160.742 8  87121860.12346                  21275966.047
                  21275975.141                          48.200          38.300

 106914961.570 8  83310510.85546                  20345213.172
                  20345220.891                          51.200          41.100

 116502769.735 7  90781492.416 7  86998928.311 8  22169709.078
  22169720.750    22169720.496    22169720.773          47.700          47.200
        50.900
 106465694.016 8  82960420.37446                  20259715.961
                  20259724.902                          48.200          41.400

 123727707.707 7  96411220.94144                  23544570.500
                  23544583.047                          42.600          29.600

 130605864.313 6 101770906.09143                  24853472.422
                  24853491.332                          40.200          21.700

 116458025.982 7  90746704.777 7                  22161215.711
  22161226.938    22161227.492                          46.000          44.300

 117634886.914 7  91663538.388 7  87844252.585 8  22385115.953
  22385128.746    22385128.961    22385128.121          47.000          46.700
        49.500
 114296614.008 7  89062458.08045                  21749904.836
                  21749916.465                          47.500          33.600

 120362711.150 7  93789246.20244                  22904251.648
                  22904265.230                          44.800          29.400

 14  3  4  0  3 30.0000000  0 11G20G16G23G30G13G19G08G07G27G03G10
 129326682.404 5 100774136.36742                  24610053.109
                  24610070.125                          34.200          15.600

 111875321.199 8  87175751.37446                  21289127.008
                  21289135.832                          48.600          38.300

 106949502.203 8  83337425.63646                  20351785.867
                  20351793.539                          50.800          41.300

 116562377.377 8  90827939.915 7  87043440.499 8  22181052.141
  22181063.813    22181063.707    22181063.867          48.100          47.000
        50.800
 106433052.582 8  82934985.54046                  20253504.711
                  20253513.656                          49.200          41.300

 123629671.909 7  96334829.69044                  23525914.477
                  23525926.676                          43.800          29.200

 130528929.935 6 101710957.47243                  24838833.328
                  24838850.426                          40.900          23.000

 116395519.824 7  90697998.838 7                  22149320.898
  22149332.215    22149332.773                          45.900          45.000

 117589669.171 7  91628303.909 7  87810486.234 8  22376511.422
  22376523.859    22376524.008    22376523.871          46.000          46.600
        49.800
 114224226.086 7  89006052.04445                  21736130.305
                  21736142.063                          47.000          34.700

 120353256.765 7  93781879.18144                  22902451.969
                  22902465.645                          43.900          28.500

 14  3  4  0  4  0.0000000  0 11G20G16G23G30G13G19G08G07G27G03G10
 129429331.856 6 100854122.91242                  24629587.695
                  24629602.117                          38.700          16.900

 111944879.731 8  87229952.82346                  21302363.492
                  21302373.059                          49.600          38.400

 106984552.748 8  83364737.74847                  20358455.898
                  20358462.680                          50.900          42.200

 116622128.257 7  90874499.021 7  87088059.653 8  22192422.516
  22192434.305    22192434.391    22192434.668          47.300          46.800
        50.800
 106400873.109 8  82909910.67546                  20247380.789
                  20247390.113                          49.200          41.100

 123531800.270 7  96258566.33944                  23507290.102
                  23507302.539                          44.400          28.900

 130452027.124 7 101651033.54843                  24824198.328
                  24824216.348                          42.300          22.300

 116333146.134 7  90649396.113 7                  22137452.016
  22137462.730    22137463.324                          46.800          44.600

 117544947.172 7  91593455.707 7  87777090.065 8  22368000.273
  22368013.004    22368013.004    22368013.160          45.900          46.000
        50.000
 114152292.398 7  88949999.95145                  21722442.273
                  21722453.188                          47.600          34.400

 120344386.616 7  93774967.40244                  22900763.508
                  22900777.328                          43.800          27.200

 14  3  4  0  4 30.0000000  0 11G20G16G23G30G13G19G08G07G27G03G10
 129531919.441 6 100934061.09642                  24649109.383
                  24649123.523                          39.200          15.600

 112014833.230 8  87284462.03546                  21315675.227
                  21315684.637                          49.100          38.100

 107020111.818 8  83392446.12346                  20365222.578
                  20365229.406                          51.200          41.600

 116682021.053 7  90921168.720 7  87132784.790 8  22203819.750
  22203831.527    22203831.551    22203831.535          47.300          46.800
        51.500
 106369156.511 7  82885196.50946                  20241345.852
                  20241354.750                          47.600          41.300

 123434095.476 7  96182432.99044                  23488696.922
                  23488709.699                          44.200          28.400

 130375155.250 6 101591133.66044                  24809570.008
                  24809588.207                          40.900          25.000

 116270904.062 7  90600895.949 7                  22125606.953
  22125618.066    22125618.367                          46.200          43.900

 117500722.173 7  91558994.792 7  87744065.062 8  22359584.734
  22359596.805    22359597.234    22359597.156          45.300          46.300
        49.700
 114080815.468 7  88894303.77445                  21708839.555
                  21708850.703                          46.600          33.800

 120336099.661 7  93768510.05944                  22899187.367
                  22899200.195                          43.700          28.300

 14  3  4  0  5  0.0000000  0 11G20G16G23G30G13G19G08G07G27G03G10
 129634442.566 6 101013949.19743                  24668620.781
                  24668635.070                          40.200          20.600

 112085179.336 8  87339277.17446                  21329061.695
                  21329071.086                          49.700          38.100

 107056179.381 8  83420550.71246                  20372086.031
                  20372093.391                          51.600          41.100

 116742055.486 7  90967948.785 7  87177615.682 8  22215243.453
  22215255.809    22215255.930    22215255.918          47.200          47.400
        51.200
 106337904.696 8  82860844.50246                  20235398.539
                  20235407.578                          48.800          41.000

 123336561.076 7  96106432.43044                  23470137.195
                  23470149.535                          44.500          26.600

 130298314.168 6 101531257.80544                  24794947.086
                  24794965.180                          41.100          25.300

 116208794.320 7  90552498.906 7                  22113788.563
  22113798.211    22113798.754                          46.500          43.200

 117456996.582 7  91524923.024 7  87711412.984 8  22351264.570
  22351276.305    22351276.723    22351276.641          46.600          46.300
        49.600
 114009798.243 7  88838965.82045                  21695325.484
                  21695336.625                          46.800          33.900

 120328395.923 7  93762507.18244                  22897721.297
                  22897734.223                          44.600          27.900

 14  3  4  0  5 30.0000000  0 11G20G16G23G30G13G19G08G07G27G03G10
 129736898.837 6 101093785.13542                  24688116.609
                  24688132.039                          38.600          17.800

 112155915.365 8  87394396.15446                  21342522.516
                  21342531.621                          49.300          38.100

 107092755.715 8  83449051.74846                  20379046.297
                  20379053.117                          51.700          41.300

 116802231.551 7  91014839.207 7  87222552.327 8  22226694.438
  22226706.684    22226707.242    22226707.051          47.000          47.200
        52.000
 106307119.966 8  82836856.46046                  20229540.266
                  20229549.059                          49.300          40.900

 123239200.820 7  96030567.53544                  23451609.734
                  23451622.020                          44.600          27.300

 130221504.272 7 101471406.25244                  24780331.172
                  24780347.734                          42.700          24.700

 116146817.357 7  90504205.314 7                  22101994.102
  22102004.492    22102004.496                          46.900          43.600

 117413772.869 7  91491242.337 7  87679135.681 8  22343038.688
  22343051.133    22343051.082    22343050.941          47.100          45.900
        49.000
 113939244.295 7  88783988.85545                  21681899.344
                  21681910.582                          47.500          34.500

 120321275.279 7  93756958.66244                  22896366.242
                  22896379.578                          45.400          28.900

 14  3  4  0  6  0.0000000  0 11G20G16G23G30G13G19G08G07G27G03G10
 129839286.193 6 101173567.38543                  24707600.242
                  24707617.902                          39.200          19.300

 112227039.126 8  87449817.25546                  21356056.891
                  21356065.730                          49.300          38.000

 107129841.103 8  83477949.45146                  20386103.203
                  20386110.926                          50.900          41.300

 116862548.939 7  91061839.750 7  87267594.508 8  22238172.789
  22238184.895    22238184.906    22238185.359          46.800          46.500
        51.400
 106276804.206 8  82813233.84446                  20223771.461
                  20223780.012                          48.900          41.800

 123142018.380 7  95954841.18944                  23433116.227
                  23433128.727                          44.200          27.100

 130144725.756 7 101411579.09843                  24765719.875
                  24765736.215                          42.600          22.500

 116084973.542 7  90456015.472 7                  22090225.734
  22090236.047    22090235.840                          45.600          43.600

 117371053.332 7  91457954.510 7  87647234.878 8  22334909.445
  22334921.285    22334921.035    22334921.309          46.200          46.200
        49.100
 113869156.451 7  88729375.09845                  21668562.086
                  21668573.586                          46.900          34.700

 120314738.059 7  93751864.76944                  22895122.602
                  22895135.355                          44.600          28.800

 14  3  4  0  6 30.0000000  0 11G20G16G23G30G13G19G08G07G27G03G10
 129941601.642 6 101253293.50743                  24727070.227
                  24727088.211                          41.100          18.600

 112298547.667 8  87505538.19546                  21369664.336
                  21369673.055                          49.700          38.100

 107167434.838 8  83507243.28246                  20393257.094
                  20393264.578                          50.600          41.100

 116923006.961 8  91108949.886 7  87312741.712 8  22249677.625
  22249689.406    22249689.039    22249689.906          48.100          46.400
        51.500
 106246959.267 8  82789978.10646                  20218092.047
                  20218100.707                          49.100          41.400

 123045016.725 7  95879255.72444                  23414657.500
                  23414669.871                          43.800          27.400

 130067978.297 6 101351776.22943                  24751114.867
                  24751131.617                          41.000          20.600

 116023263.037 7  90407929.511 7                  22078482.523
  22078492.777    22078492.996                          45.800          44.500

 117328839.837 7  91425060.995 7  87615711.955 8  22326876.453
  22326888.418    22326888.637    22326888.379          47.300          46.400
        49.700
 113799537.513 8  88675126.70145                  21655314.375
                  21655325.629                          48.200          35.400

 120308784.034 7  93747225.32244                  22893989.516
                  22894002.363                          45.300          29.300

 14  3  4  0  7  0.0000000  0 11G20G16G23G30G13G19G08G07G27G03G10
 130043843.042 6 101332961.99843                  24746525.336
                  24746544.004                          38.400          20.100

 112370438.427 8  87561556.96546                  21383344.859
                  21383354.039                          49.600          37.700

 107205537.027 8  83536933.29846                  20400508.203
                  20400515.500                          50.400          41.200

 116983605.401 7  91156169.418 7  87357993.769 8  22261209.188
  22261221.063    22261220.844    22261221.945          47.600          46.300
        51.300
 106217586.683 7  82767090.43346                  20212502.789
                  20212511.336                          47.000          41.900

 122948199.620 7  95803814.06344                  23396233.336
                  23396246.441                          44.300          27.700

 129991262.067 6 101291997.59743                  24736515.859
                  24736533.523                          41.700          21.800

 115961686.406 7  90359947.874 7                  22066764.977
  22066774.980    22066775.336                          45.000          44.100

 117287134.568 7  91392563.508 7  87584568.535 8  22318939.828
  22318952.270    22318952.371    22318951.938          45.300          47.600
        49.400
 113730390.396 7  88621245.96845                  21642155.742
                  21642167.316                          46.900          35.800

 120303412.609 7  93743039.84344                  22892967.219
                  22892980.176                          44.500          29.100

 14  3  4  0  7 30.0000000  0 11G20G16G23G30G13G19G08G07G27G03G10
 130146007.117 6 101412570.24843                  24765966.813
                  24765985.844                          39.400          22.200

 112442708.665 8  87617871.41746                  21397097.391
                  21397106.277                          48.600          37.000

 107244146.611 8  83567018.67646                  20407854.961
                  20407862.434                          51.100          41.000

 117044343.329 7  91203497.637 7  87403349.984 8  22272766.727
  22272779.578    22272779.238    22272779.691          46.600          47.000
        50.900
 106188687.969 7  82744572.01146                  20207002.938
                  20207011.871                          47.800          40.600

 122851569.861 7  95728518.40944                  23377845.031
                  23377857.262                          42.100          26.900

 129914576.634 6 101232243.02643                  24721923.523
                  24721941.758                          41.400          22.200

 115900243.283 7  90312070.253 7                  22055072.523
  22055082.938    22055083.332                          45.900          44.700

 117245939.074 7  91360463.243 7  87553805.812 8  22311100.758
  22311113.082    22311113.238    22311112.336          46.900          47.800
        49.400
 113661717.861 8  88567735.03545                  21629087.242
                  21629098.219                          48.600          34.600

 120298623.459 7  93739308.08944                  22892055.648
                  22892069.293                          43.100          29.600

 14  3  4  0  8  0.0000000  0 11G20G16G23G30G13G19G08G07G27G03G10
 130248091.772 6 101492116.59443                  24785393.516
                  24785410.992                          38.700          21.700

 112515355.410 8  87674479.26146                  21410921.453
                  21410930.340                          49.300          36.700

 107283263.926 8  83597499.70246                  20415298.492
                  20415305.820                          50.000          40.800

 117105220.543 7  91250934.410 7  87448810.221 8  22284351.672
  22284363.570    22284363.746    22284363.848          45.900          46.500
        51.400
 106160264.612 7  82722424.00146                  20201594.070
                  20201602.781                          47.500          40.100

 122755131.072 6  95653371.55744                  23359492.539
                  23359504.598                          40.500          26.700

 129837922.154 7 101172512.52043                  24707336.922
                  24707352.957                          42.000          22.200

 115838934.488 7  90264297.287 7                  22043405.664
  22043416.398    22043416.813                          46.300          44.700

 117205255.732 7  91328762.042 7  87523425.530 8  22303359.453
  22303371.676    22303371.973    22303371.309          46.800          47.300
        49.900
 113593522.659 7  88514596.05645                  21616110.609
                  21616121.109                          46.800          35.100

 120294416.507 7  93736029.99244                  22891254.844
                  22891268.188                          44.500          29.400

 14  3  4  0  8 30.0000000  0 11G20G16G23G30G13G19G08G07G27G03G10
 130350094.529 6 101571599.09743                  24804803.711
                  24804821.230                          37.000          21.100

 112588376.500 8  87731378.80746                  21424817.047
                  21424825.316                          48.000          36.700

 107322888.971 8  83628376.36246                  20422839.273
                  20422845.992                          49.500          40.900

 117166236.930 7  91298479.639 7  87494374.390 8  22295962.859
  22295975.090    22295974.797    22295974.957          46.400          46.500
        51.400
 106132319.319 7  82700648.50046                  20196276.750
                  20196285.168                          47.800          41.300

 122658886.997 6  95578376.45444                  23341178.063
                  23341188.977                          40.000          27.500

 129761298.946 6 101112806.43743                  24692754.938
                  24692773.816                          40.900          23.500

 115777760.358 7  90216629.265 7                  22031764.086
  22031774.844    22031775.602                          46.200          45.100

 117165086.763 7  91297461.653 7  87493429.342 8  22295715.367
  22295726.988    22295727.141    22295726.707          47.900          46.600
        50.200
 113525808.162 7  88461831.66045                  21603224.617
                  21603235.551                          47.000          34.800

 120290791.688 7  93733205.50444                  22890564.688
                  22890577.840                          43.900          29.300

 14  3  4  0  9  0.0000000  0 11G20G16G23G30G13G19G08G07G27G03G10
 130452012.377 6 101651015.51343                  24824199.578
                  24824215.418                          38.100          20.900

 112661768.665 8  87788567.50246                  21438783.250
                  21438791.656                          48.900          36.500

 107363020.689 8  83659647.82746                  20430476.203
                  20430483.039                          50.600          40.800

 117227391.566 7  91346132.593 7  87540041.790 8  22307600.227
  22307612.492    22307612.406    22307612.273          47.300          47.500
        51.600
 106104852.788 8  82679246.06346                  20191049.430
                  20191058.500                          48.500          41.200

 122562840.706 7  95503535.46544                  23322901.023
                  23322911.266                          42.000          26.400

 129684706.496 6 101053124.31443                  24678180.359
                  24678196.988                          41.700          20.600

 115716720.611 7  90169065.942 7                  22020148.859
  22020159.828    22020160.230                          46.700          46.000

 117125433.565 7  91266563.179 7  87463818.327 8  22288169.445
  22288181.660    22288182.023    22288181.297          47.300          47.100
        50.700
 113458576.828 8  88409443.74745                  21590430.875
                  21590442.172                          48.000          34.200

 120287748.085 7  93730833.91144                  22889986.180
                  22889998.828                          45.100          29.400

 14  3  4  0  9 30.0000000  0 11G20G16G23G30G13G19G08G07G27G03G10
 130553843.245 5 101730364.03643                  24843573.945
                  24843593.902                          33.100          18.300

 112735529.619 8  87846043.55446                  21452818.883
                  21452827.570                          49.000          36.500

 107403659.141 8  83691314.15546                  20438209.625
                  20438216.527                          51.300          41.300

 117288684.271 7  91393893.123 7  87585812.298 8  22319263.766
  22319276.363    22319276.371    22319276.004          45.400          47.500
        51.300
 106077867.050 8  82658218.27046                  20185914.508
                  20185923.402                          48.400          41.900

 122466995.686 7  95428851.29844                  23304661.922
                  23304672.074                          42.600          28.300

 129608144.472 6 100993465.83843                  24663610.711
                  24663627.977                          40.500          20.600

 115655815.930 7  90121607.885 7                  22008558.914
  22008569.781    22008570.391                          47.300          45.800

 117086298.428 7  91236068.364 7  87434594.153 8  22280722.227
  22280734.539    22280734.422    22280734.574          46.800          47.300
        50.800
 113391831.672 7  88357434.67145                  21577729.414
                  21577740.664                          47.300          34.300

 120285285.728 7  93728915.23045                  22889517.383
                  22889530.566                          43.400          30.300

 14  3  4  0 10  0.0000000  0 11G20G16G23G30G13G19G08G07G27G03G10
 130655584.354 6 101809642.74443                  24862936.922
                  24862955.051                          37.600          20.100

 112809656.634 7  87903804.84646                  21466925.297
                  21466933.875                          47.600          36.500

 107444804.093 8  83723375.16346                  20446038.977
                  20446046.547                          50.800          41.200

 117350114.841 7  91441761.078 7  87631685.756 8  22330953.477
  22330965.797    22330965.684    22330965.961          46.100          46.000
        50.500
 106051364.181 8  82637566.74746                  20180871.297
                  20180879.547                          48.400          41.400

 122371355.503 7  95354326.75044                  23286462.477
                  23286472.191                          43.200          29.100

 129531613.507 6 100933831.60143                  24649045.461
                  24649063.750                          39.000          19.900

 115595046.708 8  90074255.385 7                  21996995.109
  21997005.188    21997005.570                          48.400          45.500

 117047683.483 7  91205978.889 7  87405758.430 8  22273373.578
  22273385.934    22273386.160    22273386.371          47.000          47.300
        50.900
 113325575.503 7  88305806.62845                  21565120.992
                  21565132.148                          47.900          34.800

 120283404.233 7  93727449.18045                  22889160.086
                  22889173.445                          42.700          30.400

 14  3  4  0 10 30.0000000  0 11G20G16G23G30G13G19G08G07G27G03G10
 130757233.353 6 101888849.58143                  24882280.031
                  24882299.168                          36.400          19.900

 112884146.701 8  87961849.03946                  21481099.945
                  21481109.184                          48.600          37.100

 107486454.860 8  83755830.30446                  20453964.852
                  20453972.324                          51.100          40.900

 117411682.564 7  91489735.926 7  87677661.636 8  22342669.281
  22342681.711    22342681.250    22342681.703          45.500          45.700
        50.800
 106025345.593 8  82617292.56246                  20175920.375
                  20175928.289                          48.300          40.900

 122275923.275 7  95279964.24244                  23268302.367
                  23268312.164                          43.300          29.700

 129455113.396 6 100874221.37743                  24634488.063
                  24634504.730                          37.500          18.600

 115534412.995 7  90027008.475 7                  21985456.492
  21985466.797    21985467.102                          47.600          45.700

 117009590.394 7  91176296.046 7  87377312.397 8  22266124.828
  22266137.223    22266137.625    22266137.543          46.800          47.700
        50.700
 113259811.389 7  88254562.00545                  21552606.570
                  21552618.082                          46.200          34.900

 120282103.003 7  93726435.29645                  22888912.141
                  22888925.082                          44.500          30.600

 14  3  4  0 11  0.0000000  0 11G20G16G23G30G13G19G08G07G27G03G10
 130858787.852 6 101967982.86743                  24901605.438
                  24901624.902                          37.100          20.600

 112958997.767 7  88020174.52046                  21495343.734
                  21495353.285                          46.100          37.700

 107528611.659 8  83788679.75046                  20461986.648
                  20461993.625                          49.200          40.400

 117473387.424 7  91537817.619 7  87723739.928 8  22354411.891
  22354424.078    22354423.070    22354423.465          45.700          45.800
        51.200
 105999813.281 8  82597397.30746                  20171061.563
                  20171069.559                          49.800          41.500

 122180702.737 7  95205766.65945                  23250181.563
                  23250192.840                          42.800          31.000

 129378644.190 6 100814635.25043                  24619937.164
                  24619952.906                          40.300          21.300

 115473915.568 8  89979867.760 7                  21973944.469
  21973954.684    21973955.172                          48.400          45.300

 116972021.338 7  91147021.549 7  87349257.702 8  22258975.641
  22258987.270    22258987.773    22258987.285          46.300          47.600
        50.500
 113194541.912 7  88203702.81745                  21540186.078
                  21540197.586                          46.100          34.800

 120281382.132 7  93725873.62045                  22888774.352
                  22888787.902                          45.000          30.000

 14  3  4  0 11 30.0000000  0 11G20G16G23G30G13G19G08G07G27G03G10
 130960244.846 6 102047040.17443                  24920912.930
                  24920931.016                          37.300          20.900

 113034206.849 7  88078778.97446                  21509655.477
                  21509665.125                          47.800          36.900

 107571273.570 8  83821922.79446                  20470104.914
                  20470111.891                          49.800          40.800

 117535228.604 7  91586005.535 7  87769920.018 8  22366179.516
  22366191.840    22366191.867    22366191.621          45.900          45.600
        50.800
 105974768.454 8  82577881.91246                  20166295.883
                  20166303.859                          50.100          41.600

 122085697.032 7  95131736.49545                  23232102.516
                  23232114.656                          43.800          30.900

 129302205.646 6 100755073.01143                  24605390.633
                  24605407.598                          38.000          18.600

 115413554.395 8  89932833.203 7                  21962457.695
  21962468.148    21962468.328                          48.100          46.100

 116934977.901 7  91118156.646 7  87321595.506 8  22251926.578
  22251938.238    22251938.207    22251938.188          47.000          46.700
        50.300
 113129769.565 8  88153231.00345                  21527860.609
                  21527870.980                          48.500          35.000

 120281240.392 7  93725763.22945                  22888747.578
                  22888760.141                          45.000          30.200

 14  3  4  0 12  0.0000000  0 11G20G16G23G30G13G19G08G07G27G03G10
 131061602.504 6 102126020.00543                  24940199.391
                  24940219.020                          40.500          19.300

 113109771.215 8  88137660.27546                  21524035.195
                  21524044.473                          48.300          37.100

 107614440.385 8  83855559.26746                  20478319.406
                  20478326.617                          49.800          40.200

 117597206.041 7  91634299.630 7  87816201.859 8  22377973.367
  22377985.168    22377985.563    22377985.781          45.600          46.900
        51.500
 105950212.944 8  82558747.80046                  20161623.047
                  20161631.031                          49.600          41.400

 121990909.769 7  95057876.53845                  23214065.242
                  23214078.066                          43.700          32.000

 129225798.055 6 100695534.88943                  24590850.711
                  24590867.613                          39.800          20.900

 115353329.882 7  89885905.154 7                  21950997.391
  21951007.535    21951007.965                          47.000          45.000

 116898462.194 7  91089702.940 7  87294327.396 8  22244977.594
  22244989.863    22244989.875    22244989.797          46.900          47.500
        50.300
 113065497.210 7  88103148.78145                  21515629.391
                  21515640.027                          46.700          34.900

 120281677.482 7  93726103.86344                  22888830.609
                  22888842.898                          44.700          29.500

 14  3  4  0 12 30.0000000  0 11G20G16G23G30G13G19G08G07G27G03G10
 131162858.103 6 102204920.33343                  24959468.281
                  24959487.051                          40.300          20.100

 113185687.932 8  88196816.14246                  21538481.445
                  21538490.758                          48.000          36.500

 107658111.307 8  83889588.56046                  20486629.641
                  20486636.949                          50.800          40.500

 117659319.062 7  91682699.377 7  87862584.950 8  22389793.453
  22389805.102    22389805.402    22389805.797          46.000          46.200
        51.400
 105926147.997 8  82539995.94446                  20157043.297
                  20157051.512                          49.300          41.600

 121896344.118 7  94984189.25445                  23196069.891
                  23196082.617                          44.500          32.300

 129149421.124 6 100636020.69143                  24576315.852
                  24576332.922                          41.100          21.300

 115293242.072 7  89839083.635 7                  21939563.023
  21939573.063    21939573.652                          45.800          45.700

 116862475.817 7  91061661.688 7  87267454.557 8  22238129.633
  22238141.770    22238141.516    22238141.438          47.500          47.500
        50.500
 113001727.804 7  88053458.48545                  21503494.852
                  21503505.051                          44.600          34.100

 120282692.886 7  93726895.14845                  22889024.031
                  22889036.840                          44.700          30.000

 14  3  4  0 13  0.0000000  0 11G20G16G23G30G13G19G08G07G27G03G10
 131264008.799 6 102283738.97143                  24978716.797
                  24978735.309                          41.200          20.400

 113261954.284 7  88256244.43946                  21552994.453
                  21553003.570                          47.100          36.900

 107702285.912 8  83924010.32146                  20495035.617
                  20495043.086                          50.100          40.400

 117721567.144 7  91731204.375 7  87909068.893 8  22401638.492
  22401650.438    22401650.875    22401651.152          46.100          46.000
        51.600
 105902575.185 8  82521627.56446                  20152557.117
                  20152565.500                          49.800          41.500

 121802003.381 7  94910677.21045                  23178116.984
                  23178129.164                          44.400          31.400

 129073074.651 7 100576530.22344                  24561789.547
                  24561806.285                          42.800          24.200

 115233291.197 8  89792368.810 7                  21928154.297
  21928164.574    21928165.066                          48.100          45.500

 116827020.468 7  91034034.235 7  87240978.261 8  22231382.359
  22231394.688    22231394.855    22231394.246          46.700          47.800
        49.600
 112938463.934 7  88004162.11045                  21491455.805
                  21491466.340                          46.900          34.500

 120284286.074 7  93728136.64545                  22889327.156
                  22889340.738                          43.200          30.100

 14  3  4  0 13 30.0000000  0 11G20G16G23G30G13G19G08G07G27G03G10
 131365052.241 6 102362473.99843                  24997945.000
                  24997963.555                          40.000          18.600

 113338568.173 7  88315943.54446                  21567573.852
                  21567582.715                          47.700          37.000

 107746964.138 8  83958824.51746                  20503537.766
                  20503545.188                          50.000          40.400

 117783950.191 7  91779814.529 7  87955653.621 8  22413509.883
  22413521.957    22413522.398    22413522.324          46.700          46.300
        51.200
 105879496.576 8  82503644.29046                  20148165.984
                  20148173.859                          49.500          40.900

 121707891.321 7  94837343.33345                  23160208.141
                  23160219.418                          44.100          31.200

 128996758.529 7 100517063.37344                  24547267.445
                  24547282.879                          43.700          24.900

 115173478.320 7  89745761.505 7                  21916772.297
  21916782.773    21916782.898                          47.800          45.500

 116792098.225 7  91006822.203 7  87214900.068 8  22224737.336
  22224748.699    22224749.004    22224748.863          47.400          47.600
        49.800
 112875708.439 7  87955261.86045                  21479513.438
                  21479525.105                          46.000          34.600

 120286456.722 7  93729828.11744                  22889740.242
                  22889753.816                          42.300          29.400

 14  3  4  0 14  0.0000000  0 11G20G16G23G30G13G19G08G07G27G03G10
 131465986.233 6 102441123.79742                  25017152.766
                  25017170.008                          36.000          17.800

 113415526.444 8  88375911.00946                  21582218.938
                  21582227.211                          49.300          37.200

 107792145.074 8  83994030.44946                  20512135.813
                  20512142.609                          50.800          40.500

 117846467.727 7  91828529.494 7  88002338.787 8  22425406.539
  22425419.023    22425418.613    22425418.484          45.800          45.900
        51.200
 105856913.565 8  82486047.18746                  20143868.539
                  20143876.668                          50.800          41.900

 121614011.200 7  94764190.21144                  23142342.938
                  23142353.516                          43.600          29.400

 128920473.003 7 100457620.41144                  24532749.422
                  24532766.531                          42.700          24.300

 115113803.190 7  89699261.549 7                  21905416.641
  21905426.371    21905427.004                          47.700          45.700

 116757710.716 7  90980026.834 7  87189221.189 8  22218193.422
  22218204.711    22218204.930    22218204.555          47.800          46.700
        50.200
 112813464.018 7  87906759.84445                  21467668.953
                  21467679.340                          47.500          34.500

 120289204.060 7  93731968.96645                  22890262.211
                  22890275.984                          44.400          30.300

 14  3  4  0 14 30.0000000  0 11G20G16G23G30G13G19G08G07G27G03G10
 131566808.269 5 102519686.34742                  25036338.820
                  25036356.168                          35.500          17.800

 113492826.415 8  88436144.73146                  21596928.344
                  21596937.488                          49.600          37.700

 107837828.463 8  84029627.89546                  20520829.094
                  20520836.063                          51.000          40.800

 117909119.455 7  91877349.026 7  88049124.157 8  22437328.477
  22437340.969    22437341.051    22437340.684          45.900          46.600
        51.100
 105834828.016 8  82468837.73046                  20139665.648
                  20139673.680                          50.100          41.700

 121520366.532 7  94691220.54544                  23124522.844
                  23124532.410                          43.500          29.100

 128844218.195 7 100398201.36044                  24518238.117
                  24518255.094                          42.500          24.700

 115054266.171 7  89652869.213 7                  21894087.016
  21894096.688    21894096.926                          47.500          45.100

 116723859.876 7  90953649.652 7  87163943.084 8  22211751.969
  22211763.313    22211763.723    22211762.996          46.800          47.400
        50.000
 112751733.657 7  87858658.39545                  21455922.211
                  21455932.281                          46.300          35.000

 120292527.785 7  93734558.94344                  22890894.172
                  22890907.914                          44.300          29.300

 14  3  4  0 15  0.0000000  0 11G20G16G23G30G13G19G08G07G27G03G10
 131667515.979 6 102598159.82342                  25055501.867
                  25055519.957                          37.100          17.400

 113570465.687 7  88496642.84646                  21611702.563
                  21611711.512                          47.500          36.900

 107884013.862 8  84065616.50246                  20529617.906
                  20529624.535                          50.000          41.100

 117971905.111 7  91926272.903 7  88096009.546 8  22449276.055
  22449288.680    22449288.527    22449288.512          45.400          45.500
        51.000
 105813241.362 8  82452017.00646                  20135557.570
                  20135565.863                          49.300          41.000

 121426960.588 7  94618436.89944                  23106748.828
                  23106757.383                          43.300          28.600

 128767994.228 6 100338806.33644                  24503732.383
                  24503748.945                          40.300          24.400

 114994867.807 7  89606584.911 7                  21882783.680
  21882793.121    21882794.082                          46.500          44.600

 116690547.418 7  90927692.000 7  87139067.021 8  22205412.164
  22205423.816    22205424.023    22205423.238          45.900          47.500
        49.700
 112690519.835 7  87810959.44445                  21444272.484
                  21444283.285                          45.500          34.900

 120296427.090 7  93737597.40544                  22891637.211
                  22891649.434                          45.200          28.500

 14  3  4  0 15 30.0000000  0 11G20G16G23G30G13G19G08G07G27G03G10
 131768106.850 6 102676542.22442                  25074643.547
                  25074663.102                          39.000          16.900

 113648441.562 8  88557403.24446                  21626541.133
                  21626549.938                          49.100          36.900

 107930700.794 8  84101995.91946                  20538501.438
                  20538508.512                          50.300          41.000

 118034824.282 7  91975300.820 7  88142994.619 8  22461249.516
  22461261.730    22461261.914    22461261.605          45.800          46.700
        50.300
 105792155.103 8  82435586.21346                  20131544.945
                  20131552.891                          50.300          41.700

 121333796.865 7  94545842.03044                  23089019.125
                  23089028.516                          42.800          27.300

 128691800.852 6 100279435.23243                  24489232.867
                  24489249.094                          40.800          23.400

 114935608.599 7  89560409.055 7                  21871507.117
  21871516.695    21871517.117                          47.300          45.300

 116657775.081 7  90902155.224 8  87114594.296 8  22199175.539
  22199187.543    22199187.789    22199187.297          45.700          48.000
        50.300
 112629825.140 7  87763665.00345                  21432722.930
                  21432733.402                          47.200          34.700

 120300901.164 7  93741083.75245                  22892488.789
                  22892501.039                          44.600          30.200

 14  3  4  0 16  0.0000000  0 11G09G16G23G30G13G19G08G07G27G03G10
 130424117.67116 101629299.36353                  24818892.719
                  24818913.359                          36.500          19.300

 113726751.575 8  88618424.01146                  21641442.992
                  21641451.578                          49.100          36.100

 107977888.642 8  84138765.66946                  20547481.602
                  20547488.430                          51.100          40.700

 118097876.703 7  92024432.566 7  88190079.212 8  22473248.055
  22473260.430    22473260.809    22473259.914          45.800          46.400
        49.900
 105771570.921 8  82419546.64246                  20127628.289
                  20127635.965                          49.700          41.400

 121240878.967 7  94473438.70644                  23071337.547
                  23071347.730                          42.900          28.300

 128615638.168 6 100220088.00043                  24474739.914
                  24474755.289                          40.700          22.800

 114876489.103 7  89514342.058 7                  21860256.781
  21860266.691    21860267.023                          47.200          45.200

 116625544.585 7  90877040.664 7  87090526.203 8  22193042.141
  22193054.621    22193055.406    22193054.445          47.000          47.300
        50.300
 112569652.580 7  87716777.41945                  21421272.578
                  21421283.238                          47.900          34.800

 120305949.623 7  93745017.68145                  22893449.922
                  22893462.309                          45.200          30.500

 14  3  4  0 16 30.0000000  0 11G09G16G23G30G13G19G08G07G27G03G10
 130330035.794 5 101555989.14742                  24800989.195
                  24801010.641                          34.200          16.300

 113805393.064 8  88679703.07746                  21656407.789
                  21656416.207                          48.200          36.400

 108025577.038 8  84175925.44446                  20556556.531
                  20556563.496                          51.000          40.900

 118161062.288 7  92073668.092 7  88237263.248 8  22485271.734
  22485283.902    22485284.285    22485283.039          45.000          47.000
        49.500
 105751490.808 8  82403899.85446                  20123806.836
                  20123814.832                          49.800          41.500

 121148210.544 7  94401229.78744                  23053703.273
                  23053714.359                          42.200          29.700

 128539506.232 6 100160764.76943                  24460252.398
                  24460267.023                          40.800          23.300

 114817509.460 7  89468384.039 7                  21849032.758
  21849042.879    21849043.391                          46.400          45.600

 116593857.948 7  90852349.885 7  87066864.236 8  22187012.836
  22187024.172    22187024.320    22187024.238          45.700          46.900
        50.600
 112510004.729 7  87670298.69645                  21409921.711
                  21409932.707                          47.000          35.700

 120311572.028 7  93749398.81545                  22894519.414
                  22894532.895                          45.800          30.900

 14  3  4  0 17  0.0000000  0 11G09G16G23G30G13G19G08G07G27G03G10
 130235960.163 6 101482683.77743                  24783087.820
                  24783107.609                          38.900          18.300

 113884363.175 8  88741238.21745                  21671435.648
                  21671443.977                          48.700          35.700

 108073765.302 8  84213474.73346                  20565726.664
                  20565733.809                          52.000          40.800

 118224380.285 7  92123006.781 7  88284546.157 8  22497321.164
  22497333.785    22497333.563    22497332.844          45.600          47.000
        49.900
 105731915.501 8  82388646.42346                  20120081.641
                  20120090.156                          49.200          41.300

 121055794.976 7  94329217.88645                  23036116.875
                  23036128.801                          42.100          30.200

 128463404.719 6 100101465.17643                  24445769.750
