     2.11           OBSERVATION DATA    G (GPS)             RINEX VERSION / TYPE
teqc  2014Jan16     NOAA/NOS/NGS/CORS   20140322 00:19:01UTCPGM / RUN BY / DATE
Solaris x86 5.10|AMD64|cc SC5.8 -xarch=amd64|=+|=+          COMMENT
   0.000      (antenna height)                              COMMENT
 +39.99147598 (latitude)                                    COMMENT
-105.26107939 (longitude)                                   COMMENT
1655.057      (elevation)                                   COMMENT
BIT 2 OF LLI FLAGS DATA COLLECTED UNDER A/S CONDITION       COMMENT
DSRC (COGO code)                                            COMMENT
DSRC                                                        MARKER NAME
DSRC                                                        MARKER NUMBER
Seth I. Gutman      ESRL                                    OBSERVER / AGENCY
5051K72749          TRIMBLE NETR9       4.60                REC # / TYPE / VERS
1441107284          TRM57971.00     NONE                    ANT # / TYPE
 -1288338.0320 -4721989.8640  4078321.1770                  APPROX POSITION XYZ
        0.0000        0.0000        0.0000                  ANTENNA: DELTA H/E/N
     1     1                                                WAVELENGTH FACT L1/2
    11    L1    L2    L5    C1    P1    C2    P2    C5    S1# / TYPES OF OBSERV
          S2    S5                                          # / TYPES OF OBSERV
    30.0000                                                 INTERVAL
    16                                                      LEAP SECONDS
 SNR is mapped to RINEX snr flag value [0-9]                COMMENT
  L1 & L2: min(max(int(snr_dBHz/6), 0), 9)                  COMMENT
teqc windowed: start @ 2014 Mar 21 00:00:00.000             COMMENT
teqc windowed: delta = 86400.000 sec                        COMMENT
teqc edited: all SBAS satellites excluded                   COMMENT
teqc edited: all Galileo satellites excluded                COMMENT
teqc edited: all Compass satellites excluded                COMMENT
teqc edited: all QZSS satellites excluded                   COMMENT
  2014     3    21     0     0    0.0000000     GPS         TIME OF FIRST OBS
                                                            END OF HEADER
 14  3 21  0  0  0.0000000  0 13G09G16G13G23G07G19G30G27G03G10G08G28
                                G05
 120565444.420 6  93947235.51744                  22942834.328
                  22942846.508                          41.300          25.600

 123949324.308 7  96583985.50844                  23586747.203
                  23586758.344                          43.800          26.100

 106764227.758 8  83193041.29146                  20316533.883
                  20316542.078                          49.000          41.300

 116025494.511 7  90409606.44545                  22078916.422
                  22078925.906                          47.800          34.700

 109402804.157 8  85249048.417 8                  20818631.258
  20818639.563    20818640.059                          48.400          48.400

 113368795.814 7  88339424.58746                  21573334.781
                  21573343.750                          47.200          38.100

 116596055.139 7  90854286.818 7  87068699.325 8  22187496.305
  22187508.883    22187509.238    22187508.871          46.700          47.200
        51.500
 116528803.160 7  90801700.986 7  87018324.565 8  22174645.000
  22174656.543    22174656.426    22174655.996          47.900          46.900
        50.200
 109447421.044 8  85283798.52846                  20827112.867
                  20827123.246                          49.000          38.100

 123894379.190 7  96541162.12344                  23576311.133
                  23576324.066                          42.700          27.400

 120082481.753 7  93570888.07345                  22850922.719
                  22850934.047                          45.600          31.900

 124356955.391 6  96901605.24344                  23664327.750
                  23664339.820                          41.200          24.700

 131584773.926 5 102533487.232 6                  25039709.375
  25039727.531    25039724.313                          35.000          38.900

 14  3 21  0  0 30.0000000  0 13G09G16G13G23G07G19G30G27G03G10G08G28
                                G05
 120474917.738 7  93876695.36344                  22925608.641
                  22925619.754                          43.000          25.600

 124049445.891 7  96662002.22944                  23605799.328
                  23605810.863                          43.300          25.100

 106804126.258 8  83224131.00946                  20324126.219
                  20324135.496                          49.400          40.700

 116120716.345 7  90483805.14645                  22097036.867
                  22097046.102                          47.900          33.900

 109362184.053 8  85217396.436 8                  20810901.844
  20810909.777    20810910.488                          49.600          48.300

 113322735.005 7  88303533.11846                  21564569.641
                  21564578.668                          47.200          37.900

 116528471.471 7  90801624.298 7  87018231.089 8  22174635.547
  22174647.574    22174648.121    22174647.934          46.600          47.000
        51.000
 116559963.723 7  90825981.959 7  87041593.813 8  22180574.758
  22180585.574    22180585.371    22180585.582          46.400          46.500
        49.500
 109452581.149 7  85287819.40246                  20828095.320
                  20828104.969                          47.400          37.800

 123952307.975 7  96586301.35844                  23587334.344
                  23587347.973                          42.400          26.900

 120011159.161 7  93515312.12045                  22837350.461
                  22837361.473                          46.000          31.300

 124274531.430 6  96837379.05844                  23648640.875
                  23648656.102                          40.100          27.300

 131555993.375 6 102511060.867 6                  25034233.656
  25034249.242    25034248.125                          36.800          37.100

 14  3 21  0  1  0.0000000  0 13G09G16G13G23G07G19G30G27G03G10G08G28
                                G05
 120384465.489 7  93806213.20844                  22908394.852
                  22908407.516                          42.000          27.000

 124149633.057 7  96740070.02644                  23624864.945
                  23624876.371                          42.900          24.700

 106844582.304 8  83255655.16446                  20331825.109
                  20331833.910                          49.200          41.100

 116216271.482 8  90558263.59545                  22115220.773
                  22115229.582                          48.400          34.100

 109321773.945 8  85185908.084 8                  20803211.930
  20803219.883    20803220.523                          49.300          48.900

 113277250.065 8  88268090.39546                  21555914.688
                  21555922.164                          48.800          37.800

 116461016.096 7  90749061.738 7  86967858.654 8  22161798.859
  22161811.891    22161811.938    22161811.926          47.000          46.400
        51.300
 116591701.133 7  90850712.402 7  87065293.811 8  22186614.414
  22186625.141    22186625.117    22186624.977          45.800          46.100
        49.900
 109458407.790 8  85292359.65746                  20829203.875
                  20829213.410                          48.600          37.100

 124010611.575 7  96631732.69544                  23598428.969
                  23598441.824                          42.900          27.200

 119939892.610 7  93459779.82145                  22823789.258
                  22823800.281                          45.100          33.000

 124192331.001 6  96773327.04744                  23632998.445
                  23633013.875                          40.500          26.200

 131527720.603 6 102489030.259 6                  25028854.070
  25028867.988    25028868.238                          39.500          36.000

 14  3 21  0  1 30.0000000  0 13G09G16G13G23G07G19G30G27G03G10G08G28
                                G05
 120294088.202 7  93735789.48544                  22891197.234
                  22891209.348                          44.600          28.100

 124249883.857 6  96818187.42744                  23643941.445
                  23643953.082                          41.600          25.200

 106885595.510 8  83287613.48246                  20339629.195
                  20339638.094                          49.900          41.100

 116312157.209 7  90632979.63245                  22133467.094
                  22133475.625                          47.600          33.500

 109281574.435 8  85154583.836 8                  20795562.617
  20795570.473    20795571.352                          49.100          48.800

 113232342.778 8  88233097.78846                  21547368.797
                  21547377.086                          48.500          38.400

 116393689.314 7  90696599.385 7  86917582.248 8  22148987.594
  22148999.609    22148999.707    22148999.984          47.200          46.000
        51.300
 116624013.953 7  90875891.209 7  87089423.514 8  22192763.148
  22192774.715    22192774.773    22192773.988          46.300          46.700
        49.700
 109464900.425 7  85297418.86246                  20830439.242
                  20830448.898                          47.700          37.100

 124069287.069 7  96677453.74944                  23609595.727
                  23609608.164                          44.100          27.000

 119868682.090 7  93404291.19545                  22810238.266
                  22810249.398                          46.300          31.900

 124110354.811 6  96709449.77644                  23617398.570
                  23617412.758                          41.600          25.900

 131499955.878 6 102467395.540 6                  25023570.875
  25023584.441    25023584.336                          40.300          36.800

 14  3 21  0  2  0.0000000  0 13G09G16G13G23G07G19G30G27G03G10G08G28
                                G05
 120203787.343 7  93665425.30444                  22874013.992
                  22874026.156                          43.700          27.800

 124350196.118 6  96896352.71344                  23663030.195
                  23663042.531                          40.800          24.200

 106927165.579 8  83320005.72546                  20347539.813
                  20347548.434                          50.000          40.600

 116408371.936 7  90707952.00945                  22151775.883
                  22151784.945                          47.200          33.400

 109241586.804 8  85123424.695 8                  20787952.648
  20787960.953    20787961.438                          49.300          48.400

 113188015.877 8  88198557.40746                  21538933.539
                  21538942.371                          48.400          38.200

 116326492.238 7  90644238.096 7  86867402.698 8  22136200.203
  22136212.191    22136212.188    22136212.820          46.700          45.500
        52.100
 116656901.483 7  90901517.831 8  87113982.374 8  22199021.273
  22199032.980    22199033.324    22199032.188          45.200          48.100
        49.800
 109472059.483 7  85302997.36246                  20831801.383
                  20831811.539                          47.800          37.600

 124128332.123 7  96723462.84544                  23620830.242
                  23620845.141                          42.400          26.900

 119797528.533 7  93348846.95345                  22796697.930
                  22796708.918                          45.300          31.400

 124028603.921 7  96645748.06544                  23601842.672
                  23601856.355                          42.600          27.400

 131472700.287 6 102446157.485 6                  25018383.805
  25018398.328    25018398.047                          39.500          37.000

 14  3 21  0  2 30.0000000  0 13G09G16G13G23G07G19G30G27G03G10G08G28
                                G05
 120113563.700 7  93595121.27744                  22856843.945
                  22856856.594                          42.600          26.500

 124450568.165 6  96974564.55743                  23682131.266
                  23682142.363                          39.800          22.000

 106969292.147 8  83352831.59846                  20355556.453
                  20355564.875                          50.200          40.200

 116504913.444 7  90783179.02245                  22170147.430
                  22170156.465                          46.300          32.700

 109201812.088 7  85092431.456 8                  20780384.023
  20780392.000    20780392.453                          46.300          48.200

 113144271.706 7  88164471.11546                  21530609.148
                  21530617.426                          45.900          38.100

 116259425.582 7  90591978.435 7  86817320.546 8  22123437.633
  22123449.758    22123449.816    22123450.504          46.200          45.200
        51.700
 116690362.654 7  90927591.464 7  87138969.605 8  22205389.031
  22205400.164    22205400.457    22205399.438          45.600          47.600
        49.300
 109479884.407 7  85309094.70646                  20833290.703
                  20833300.684                          47.800          37.100

 124187743.842 7  96769757.62744                  23632137.133
                  23632149.918                          44.300          26.700

 119726432.473 7  93293447.50945                  22783168.602
                  22783179.820                          45.300          32.400

 123947079.304 7  96582222.61344                  23586328.891
                  23586343.777                          43.400          26.800

 131445954.477 6 102425316.640 5                  25013293.703
  25013308.488    25013307.734                          37.500          35.400

 14  3 21  0  3  0.0000000  0 13G09G16G13G23G07G19G30G27G03G10G08G28
                                G05
 120023418.267 7  93524878.20944                  22839689.609
                  22839702.285                          42.900          28.500

 124550998.545 6  97052821.88243                  23701242.633
                  23701254.145                          39.700          23.600

 107011973.806 8  83386089.99846                  20363678.383
                  20363686.918                          49.300          40.700

 116601779.120 7  90858658.63945                  22188580.367
                  22188589.152                          46.800          33.200

 109162251.073 7  85061604.730 8                  20772855.680
  20772863.879    20772864.184                          47.300          48.800

 113101111.322 7  88130839.72646                  21522395.680
                  21522404.043                          45.600          38.300

 116192489.945 7  90539820.871 7  86767336.241 8  22110700.188
  22110711.531    22110711.918    22110712.898          45.800          45.500
        51.900
 116724396.230 7  90954111.130 7  87164384.302 8  22211865.320
  22211876.605    22211876.797    22211874.957          46.400          47.700
        48.800
 109488374.930 8  85315710.70446                  20834906.172
                  20834916.152                          48.300          37.000

 124247519.724 7  96816336.14644                  23643511.125
                  23643525.703                          42.400          26.500

 119655394.250 7  93238093.12245                  22769650.570
                  22769661.480                          46.600          32.100

 123865781.113 7  96518873.60344                  23570858.063
                  23570871.543                          43.700          25.800

 131419718.270 6 102404872.935 5                  25008301.805
  25008313.594    25008314.730                          36.700          32.300

 14  3 21  0  3 30.0000000  0 13G09G16G13G23G07G19G30G27G03G10G08G28
                                G05
 119933352.591 7  93454697.30344                  22822551.125
                  22822563.383                          43.500          27.700

 124651484.830 6  97131122.76643                  23720364.086
                  23720374.910                          40.400          22.800

 107055210.400 8  83419780.82246                  20371906.250
                  20371914.688                          48.800          41.100

 116698967.125 7  90934389.42745                  22207074.563
                  22207084.164                          47.000          34.000

 109122904.993 8  85030945.491 8                  20765368.195
  20765376.277    20765376.559                          48.300          48.700

 113058536.995 7  88097665.00446                  21514294.555
                  21514302.828                          47.300          38.300

 116125686.233 7  90487766.111 7  86717450.445 8  22097987.406
  22097999.121    22097999.090    22098000.309          46.800          44.700
        51.700
 116759001.264 7  90981076.071 7  87190225.725 8  22218449.781
  22218461.656    22218461.645    22218460.512          46.500          47.200
        49.400
 109497531.178 8  85322845.45646                  20836648.453
                  20836658.078                          48.300          37.500

 124307656.975 7  96863196.25744                  23654956.133
                  23654968.383                          44.600          25.900

 119584414.615 7  93182784.38745                  22756143.320
                  22756154.047                          45.800          32.000

 123784710.464 7  96455701.89844                  23555430.141
                  23555444.180                          42.900          24.000

 131393993.179 6 102384827.462 5                  25003406.211
  25003420.551    25003419.770                          38.100          34.100

 14  3 21  0  4  0.0000000  0 13G09G16G13G23G07G19G30G27G03G10G08G28
                                G05
 119843367.296 7  93384579.01044                  22805426.453
                  22805439.063                          43.000          27.500

 124752025.293 6  97209465.85943                  23739495.711
                  23739507.277                          39.500          22.600

 107099000.445 8  83453902.90746                  20380238.898
                  20380247.301                          48.600          40.700

 116796474.828 7  91010369.33745                  22225629.953
                  22225639.652                          47.200          33.300

 109083774.435 7  85000454.184 8                  20757921.688
  20757930.180    20757930.625                          47.700          48.400

 113016550.599 8  88064948.41946                  21506304.398
                  21506313.184                          48.700          38.000

 116059014.766 7  90435814.399 7  86667663.405 8  22085300.180
  22085312.184    22085312.090    22085313.305          46.300          45.100
        51.900
 116794176.138 7  91008485.070 7  87216492.684 8  22225143.773
  22225155.344    22225155.055    22225155.504          46.900          46.400
        50.100
 109507352.146 7  85330498.16646                  20838517.367
                  20838527.539                          47.600          37.300

 124368152.390 7  96910335.45244                  23666467.336
                  23666480.457                          43.200          25.000

 119513493.825 7  93127521.49045                  22742647.727
                  22742658.410                          46.900          32.100

 123703867.832 7  96392707.85943                  23540046.297
                  23540058.605                          42.600          22.900

 131368778.892 6 102365180.019 6                  24998607.586
  24998621.926    24998621.484                          38.700          36.100

 14  3 21  0  4 30.0000000  0 13G09G16G13G23G07G19G30G27G03G10G08G28
                                G05
 119753463.611 7  93314524.32244                  22788319.211
                  22788331.035                          43.200          27.300

 124852617.960 6  97287849.63543                  23758637.961
                  23758649.223                          39.000          22.900

 107143343.567 8  83488455.96146                  20388677.844
                  20388685.656                          49.100          41.100

 116894299.996 7  91086596.62445                  22244245.461
                  22244255.016                          46.100          31.100

 109044860.294 7  84970131.515 8                  20750516.680
  20750524.848    20750525.406                          46.600          48.500

 112975154.014 7  88032691.39846                  21498426.930
                  21498435.914                          46.900          38.000

 115992476.410 7  90383966.403 7  86617975.763 8  22072638.633
  22072650.699    22072650.375    22072651.301          47.600          45.100
        51.200
 116829919.839 7  91036337.307 7  87243184.400 8  22231945.414
  22231957.023    22231957.078    22231957.348          46.900          46.300
        49.600
 109517837.628 7  85338668.68746                  20840512.898
                  20840522.465                          46.300          37.200

 124429003.306 7  96957751.67744                  23678048.141
                  23678059.555                          44.500          25.200

 119442632.573 7  93072305.00245                  22729163.555
                  22729173.551                          47.100          31.800

 123623254.295 7  96329892.33143                  23524705.961
                  23524718.891                          42.200          22.600

 131344076.082 6 102345931.112 6                  24993907.555
  24993921.406    24993921.363                          41.700          37.500

 14  3 21  0  5  0.0000000  0 13G09G16G13G23G07G19G30G27G03G10G08G28
                                G05
 119663642.848 7  93244534.26044                  22771226.125
                  22771238.191                          43.400          28.300

 124953261.342 6  97366272.91543                  23777790.820
                  23777801.621                          40.300          22.200

 107188239.084 8  83523439.45446                  20397221.094
                  20397229.418                          48.800          41.000

 116992440.550 7  91163069.66345                  22262921.227
                  22262930.684                          47.200          31.400

 109006164.204 7  84939978.749 8                  20743153.008
  20743161.086    20743161.535                          47.600          48.600

 112934349.306 7  88000895.58946                  21490661.906
                  21490669.871                          47.300          38.600

 115926072.201 7  90332222.947 7  86568388.301 8  22060001.977
  22060014.148    22060014.254    22060014.648          47.000          45.900
        50.800
 116866231.449 7  91064632.061 7  87270300.209 8  22238855.781
  22238867.168    22238866.945    22238866.395          46.700          46.400
        50.000
 109528987.928 7  85347357.23846                  20842634.859
                  20842644.500                          47.000          37.500

 124490207.209 7  97005442.92744                  23689693.508
                  23689705.813                          42.300          25.400

 119371831.674 7  93017135.55145                  22715690.195
                  22715700.238                          46.100          32.000

 123542870.743 6  96267255.96943                  23509409.094
                  23509423.020                          41.100          22.500

 131319885.590 6 102327081.415 6                  24989303.508
  24989317.969    24989318.152                          40.400          37.400

 14  3 21  0  5 30.0000000  0 13G09G16G13G23G07G19G30G27G03G10G08G28
                                G05
 119573905.484 7  93174609.17244                  22754150.641
                  22754162.137                          45.200          29.300

 125053953.364 6  97444734.12943                  23796950.773
                  23796962.867                          39.200          21.700

 107233685.818 8  83558852.46446                  20405869.211
                  20405877.637                          49.600          40.600

 117090894.246 7  91239786.72145                  22281656.383
                  22281665.938                          47.200          33.500

 108967686.677 7  84909996.301 8                  20735831.078
  20735838.684    20735839.109                          47.900          48.800

 112894138.550 7  87969562.60146                  21483010.109
                  21483017.332                          47.200          38.100

 115859802.609 7  90280584.395 7  86518901.370 8  22047391.500
  22047403.840    22047404.031    22047404.074          46.000          47.000
        51.200
 116903109.437 7  91093368.154 7  87297838.970 8  22245873.703
  22245884.660    22245884.719    22245883.699          46.200          45.800
        49.400
 109540801.993 8  85356563.00046                  20844883.516
                  20844892.512                          48.500          37.700

 124551761.327 7  97053407.11744                  23701406.813
                  23701420.582                          43.300          26.200

 119301091.435 7  92962013.37645                  22702228.734
                  22702238.980                          45.800          32.200

 123462717.514 6  96204799.10943                  23494156.289
                  23494170.188                          40.400          22.800

 131296207.688 6 102308631.135 6                  24984797.656
  24984812.027    24984812.449                          38.300          37.600

 14  3 21  0  6  0.0000000  0 13G09G16G13G23G07G19G30G27G03G10G08G28
                                G05
 119484252.686 7  93104749.97844                  22737089.984
                  22737101.590                          44.700          28.600

 125154692.480 6  97523232.03243                  23816120.375
                  23816132.344                          39.800          21.100

 107279683.179 8  83594694.54346                  20414621.906
                  20414630.316                          49.400          40.800

 117189658.785 7  91316745.98145                  22300450.992
                  22300459.629                          47.700          31.600

 108929428.989 7  84880185.148 8                  20728550.359
  20728558.684    20728559.281                          47.200          48.000

 112854523.591 7  87938693.86546                  21475471.531
                  21475479.023                          45.700          37.800

 115793668.389 7  90229051.326 7  86469515.525 8  22034806.484
  22034818.781    22034819.141    22034818.773          46.500          46.500
        51.000
 116940552.622 7  91122544.655 7  87325799.781 8  22252998.086
  22253010.113    22253010.148    22253008.719          46.000          46.700
        49.100
 109553279.742 8  85366285.92746                  20847257.586
                  20847266.734                          49.200          37.800

 124613662.870 7  97101641.95744                  23713187.539
                  23713200.680                          44.200          25.100

 119230412.618 7  92906939.04845                  22688778.344
                  22688789.031                          46.000          33.000

 123382795.418 7  96142522.32944                  23478948.320
                  23478960.641                          42.600          24.300

 131273042.941 6 102290580.723 6                  24980389.570
  24980404.516    24980404.578                          39.900          37.800

 14  3 21  0  6 30.0000000  0 13G09G16G13G23G07G19G30G27G03G10G08G28
                                G05
 119394685.430 7  93034957.43044                  22720045.180
                  22720058.004                          44.300          28.100

 125255476.475 6  97601764.92043                  23835300.195
                  23835311.059                          39.900          19.600

 107326230.349 8  83630965.02846                  20423479.359
                  20423487.992                          48.800          40.300

 117288731.723 8  91393945.53845                  22319303.977
                  22319312.297                          48.700          31.900

 108891391.637 8  84850545.699 8                  20721312.727
  20721320.043    20721320.484                          49.100          48.200

 112815505.885 7  87908290.52746                  21468046.422
                  21468054.371                          47.300          38.300

 115727670.081 7  90177624.163 7  86420231.178 8  22022247.336
  22022259.691    22022259.645    22022259.453          47.200          47.000
        51.600
 116978559.456 7  91152160.361 7  87354181.502 8  22260230.352
  22260241.785    22260242.598    22260241.813          46.600          47.000
        49.600
 109566420.080 8  85376525.16946                  20849758.125
                  20849767.383                          48.500          38.100

 124675908.717 6  97150145.18844                  23725031.781
                  23725045.078                          41.800          24.700

 119159795.383 7  92851912.71045                  22675341.094
                  22675350.914                          45.200          31.900

 123303105.282 6  96080426.30943                  23463782.820
                  23463796.199                          41.400          23.000

 131250391.168 6 102272930.051 6                  24976079.203
  24976093.059    24976094.465                          40.900          37.000

 14  3 21  0  7  0.0000000  0 13G09G16G13G23G07G19G30G27G03G10G08G28
                                G05
 119305204.886 7  92965232.47944                  22703017.125
                  22703029.805                          42.800          28.700

 125356303.524 6  97680331.34943                  23854486.609
                  23854498.109                          39.400          20.600

 107373325.619 8  83667662.60846                  20432441.813
                  20432450.008                          49.000          40.800

 117388110.606 8  91471383.50245                  22338215.391
                  22338224.039                          49.100          32.200

 108853575.626 8  84821078.714 8                  20714116.266
  20714124.539    20714124.813                          48.700          48.700

 112777087.166 7  87878353.93046                  21460735.789
                  21460743.926                          47.500          37.700

 115661808.326 7  90126303.394 7  86371048.797 8  22009714.023
  22009726.105    22009726.125    22009726.168          47.200          47.600
        50.900
 117017128.509 7  91182214.146 7  87382983.061 8  22267570.563
  22267582.051    22267582.672    22267582.180          46.500          46.900
        50.100
 109580222.891 8  85387280.60746                  20852384.258
                  20852393.926                          49.200          37.300

 124738495.936 7  97198914.34643                  23736941.773
                  23736956.188                          42.500          22.600

 119089240.224 7  92796934.72445                  22661914.305
                  22661924.930                          44.900          32.100

 123223647.444 7  96018511.36344                  23448663.719
                  23448675.723                          42.400          24.000

 131228252.877 6 102255679.480 5                  24971866.242
  24971880.281    24971881.707                          39.900          35.500

 14  3 21  0  7 30.0000000  0 13G09G16G13G23G07G19G30G27G03G10G08G28
                                G05
 119215812.324 7  92895576.07344                  22686006.797
                  22686018.938                          43.300          28.400

 125457171.797 6  97758929.85943                  23873681.164
                  23873692.762                          39.800          20.400

 107420968.267 8  83704786.72146                  20441507.906
                  20441516.211                          49.000          40.800

 117487793.223 8  91549058.14645                  22357184.250
                  22357193.844                          49.400          32.100

 108815981.953 8  84791784.973 8                  20706962.359
  20706970.426    20706970.855                          48.400          48.300

 112739269.508 7  87848885.68746                  21453539.109
                  21453547.660                          47.200          38.300

 115596083.956 7  90075089.691 7  86321969.014 8  21997206.938
  21997219.316    21997219.063    21997219.227          46.200          46.600
        51.300
 117056258.554 7  91212705.084 7  87412203.535 8  22275016.281
  22275027.246    22275027.430    22275027.176          46.700          45.900
        49.900
 109594687.454 8  85398551.68946                  20855137.070
                  20855146.664                          48.800          37.900

 124801422.090 7  97247947.61144                  23748918.227
                  23748928.809                          45.400          25.600

 119018747.637 7  92742005.51745                  22648499.977
                  22648510.863                          44.800          32.400

 123144422.744 7  95956778.00444                  23433586.742
                  23433598.844                          43.400          24.500

 131206628.431 6 102238829.298 5                  24967751.102
  24967764.367    24967765.352                          40.000          35.500

 14  3 21  0  8  0.0000000  0 13G09G16G13G23G07G19G30G27G03G10G08G28
                                G05
 119126508.905 7  92825989.12544                  22669012.531
                  22669025.246                          43.400          28.300

 125558079.721 6  97837559.30043                  23892884.281
                  23892895.844                          41.300          22.300

 107469158.065 8  83742337.17546                  20450677.930
                  20450686.801                          50.300          41.100

 117587777.457 8  91626967.80645                  22376210.820
                  22376220.168                          48.600          32.700

 108778612.264 8  84762665.766 8                  20699851.016
  20699859.094    20699859.465                          48.700          48.200

 112702054.650 7  87819887.16146                  21446457.109
                  21446465.781                          46.700          38.400

 115530498.070 7  90023983.894 7  86272992.645 8  21984726.016
  21984738.434    21984738.461    21984738.742          45.800          46.500
        51.100
 117095948.588 7  91243632.391 7  87441842.196 8  22282569.398
  22282580.313    22282579.820    22282579.328          47.500          45.400
        49.300
 109609813.393 8  85410338.13946                  20858015.695
                  20858025.461                          49.800          38.100

 124864684.505 6  97297242.87943                  23760954.734
                  23760968.246                          41.700          22.500

 118948318.708 7  92687125.91845                  22635097.773
                  22635108.570                          45.200          32.800

 123065432.323 6  95895227.23644                  23418554.242
                  23418567.449                          41.300          25.000

 131185518.411 6 102222379.988 5                  24963734.039
  24963748.066    24963747.762                          39.600          34.400

 14  3 21  0  8 30.0000000  0 13G09G16G13G23G07G19G30G27G03G10G08G28
                                G05
 119037295.755 7  92756472.53744                  22652036.109
                  22652048.461                          43.700          28.900

 125659025.968 7  97916218.60043                  23912093.328
                  23912105.332                          42.200          22.200

 107517894.393 8  83780313.50546                  20459952.727
                  20459960.961                          49.700          40.900

 117688061.056 8  91705110.73845                  22395294.297
                  22395303.922                          48.500          31.900

 108741467.195 8  84733721.589 8                  20692782.672
  20692790.648    20692790.984                          49.200          48.600

 112665444.646 7  87791359.94646                  21439490.664
                  21439498.719                          47.000          38.300

 115465051.457 7  89972986.621 7  86224120.277 8  21972272.086
  21972283.934    21972284.164    21972284.441          46.900          47.000
        51.800
 117136197.247 7  91274994.972 7  87471898.006 8  22290228.273
  22290239.191    22290239.461    22290238.676          47.600          45.200
        50.300
 109625600.318 8  85422639.63946                  20861019.766
                  20861029.297                          49.500          38.200

 124928280.087 7  97346797.79343                  23773056.930
                  23773069.707                          42.600          23.200

 118877954.317 7  92632296.61145                  22621707.617
                  22621719.070                          45.800          32.500

 122986676.607 7  95833859.34544                  23403568.852
                  23403580.219                          42.900          25.300

 131164923.317 6 102206331.925 5                  24959814.734
  24959828.918    24959829.121                          40.200          35.200

 14  3 21  0  9  0.0000000  0 13G09G16G13G23G07G19G30G27G03G10G08G28
                                G05
 118948173.309 7  92687026.61745                  22635076.508
                  22635088.496                          45.000          30.000

 125760007.579 7  97994905.46543                  23931310.117
                  23931322.152                          42.500          22.600

 107567174.658 8  83818713.68646                  20469329.867
                  20469338.309                          48.100          40.200

 117788641.155 7  91783484.70345                  22414433.852
                  22414443.832                          47.300          32.300

 108704546.650 7  84704952.364 8                  20685756.672
  20685764.676    20685764.898                          47.400          48.500

 112629440.473 7  87763304.82046                  21432639.188
                  21432647.359                          47.800          38.600

 115399744.151 7  89922097.902 7  86175351.942 8  21959844.422
  21959856.395    21959856.348    21959856.566          47.500          47.300
        51.800
 117177002.397 7  91306791.170 7  87502369.353 8  22297993.094
  22298004.352    22298004.699    22298004.617          46.800          45.000
        50.000
 109642046.933 8  85435455.18946                  20864149.383
                  20864158.563                          49.000          38.300

 124992205.466 7  97396609.69644                  23785221.109
                  23785235.797                          42.400          26.000

 118807654.034 7  92577517.27845                  22608330.367
                  22608340.770                          46.600          33.600

 122908155.421 7  95772674.20744                  23388625.602
                  23388636.797                          43.900          25.800

 131144842.946 6 102190684.930 5                  24955993.344
  24956008.137    24956008.047                          40.600          35.200

 14  3 21  0  9 30.0000000  0 13G09G16G13G23G07G19G30G27G03G10G08G28
                                G05
 118859143.188 7  92617652.64244                  22618134.164
                  22618146.500                          44.500          29.100

 125861023.456 6  98073619.01943                  23950532.813
                  23950544.957                          41.700          22.600

 107616998.558 8  83857537.47846                  20478810.859
                  20478819.441                          48.700          40.300

 117889515.823 7  91862088.20445                  22433629.969
                  22433639.266                          47.200          31.900

 108667853.166 7  84676360.076 8                  20678774.180
  20678782.395    20678782.645                          47.300          48.200

 112594044.241 7  87735723.40346                  21425903.391
                  21425911.824                          47.200          38.800

 115334577.503 7  89871318.796 7  86126688.646 8  21947443.508
  21947455.605    21947456.004    21947455.988          47.600          47.500
        51.700
 117218363.181 7  91339020.330 7  87533255.612 8  22305863.891
  22305874.836    22305874.703    22305875.383          46.300          45.200
        50.300
 109659153.227 8  85448784.76446                  20867404.398
                  20867414.203                          48.600          37.900

 125056458.301 7  97446676.79244                  23797448.188
                  23797460.906                          42.900          24.700

 118737419.076 7  92522788.83845                  22594964.938
                  22594975.695                          46.000          34.000

 122829870.798 7  95711673.44844                  23373728.578
                  23373740.383                          42.600          26.500

 131125277.987 6 102175439.594 6                  24952270.695
  24952284.453    24952284.387                          41.800          36.500

 14  3 21  0 10  0.0000000  0 13G09G16G13G23G07G19G30G27G03G10G08G28
                                G05
 118770206.848 7  92548351.73145                  22601210.117
                  22601222.188                          45.600          30.100

 125962072.104 6  98152358.13043                  23969762.016
                  23969773.969                          41.400          22.500

 107667365.389 8  83896784.31446                  20488395.367
                  20488404.086                          48.700          40.400

 117990682.558 7  91940919.28445                  22452881.773
                  22452891.246                          46.400          32.000

 108631387.581 7  84647945.357 8                  20671835.031
  20671842.742    20671843.344                          47.500          48.400

 112559257.668 8  87708617.03346                  21419283.750
                  21419291.996                          49.000          38.600

 115269552.256 7  89820649.868 7  86078130.935 8  21935069.617
  21935081.836    21935081.977    21935081.902          46.600          47.500
        51.300
 117260278.181 7  91371681.358 7  87564555.744 8  22313840.094
  22313851.285    22313851.105    22313851.086          46.900          45.300
        49.600
 109676918.465 8  85462627.80946                  20870785.305
                  20870794.691                          50.000          37.900

 125121036.031 7  97496996.98844                  23809736.398
                  23809750.617                          42.500          25.300

 118667250.204 7  92468111.89745                  22581611.641
                  22581622.414                          46.400          33.800

 122751823.000 7  95650857.16344                  23358876.047
                  23358888.938                          43.600          27.000

 131106228.510 6 102160595.942 6                  24948644.992
  24948659.543    24948659.449                          41.100          37.400

 14  3 21  0 10 30.0000000  0 13G09G16G13G23G07G19G30G27G03G10G08G28
                                G05
 118681364.942 7  92479124.40045                  22584304.063
                  22584315.508                          45.100          30.700

 126063151.413 6  98231121.11644                  23988996.609
                  23989009.227                          40.600          24.400

 107718273.925 7  83936453.27046                  20498082.922
                  20498092.070                          47.900          40.700

 118092138.970 7  92019976.10045                  22472187.953
                  22472197.527                          47.400          32.800

 108595150.182 7  84619708.442 8                  20664939.492
  20664947.152    20664947.613                          47.900          48.300

 112525082.087 8  87681986.77646                  21412780.516
                  21412788.508                          48.600          38.600

 115204668.910 7  89770091.511 7  86029679.192 8  21922722.430
  21922734.801    21922734.762    21922734.922          47.000          46.500
        51.700
 117302745.623 7  91404772.860 7  87596268.421 8  22321921.133
  22321932.766    22321933.219    22321931.906          47.400          45.700
        49.900
 109695341.927 8  85476983.76246                  20874291.281
                  20874300.445                          50.500          38.600

 125185935.447 7  97547567.86644                  23822087.555
                  23822101.516                          44.300          26.900

 118597147.528 7  92413486.54245                  22568271.367
                  22568282.500                          46.600          33.500

 122674012.061 7  95590225.55044                  23344069.750
                  23344082.629                          42.100          26.700

 131087694.305 6 102146153.736 6                  24945118.102
  24945133.211    24945132.730                          39.400          38.000

 14  3 21  0 11  0.0000000  0 13G09G16G13G23G07G19G30G27G03G10G08G28
                                G05
 118592619.090 7  92409971.91545                  22567416.203
                  22567427.434                          44.600          30.600

 126164259.707 6  98309906.70543                  24008237.570
                  24008249.773                          40.600          22.800

 107769723.073 8  83976543.47846                  20507873.727
                  20507882.148                          48.100          40.400

 118193883.006 7  92099257.02245                  22491549.867
                  22491558.285                          47.200          32.100

 108559142.518 7  84591650.551 8                  20658087.422
  20658095.258    20658095.699                          47.100          48.300

 112491519.511 7  87655834.17546                  21406394.008
                  21406401.832                          46.100          39.000

 115139928.566 7  89719644.584 7  85981334.238 8  21910403.242
  21910414.695    21910415.070    21910415.000          47.700          47.100
        52.000
 117345764.331 7  91438293.917 7  87628392.766 8  22330106.977
  22330118.758    22330119.176    22330118.043          46.100          45.500
        49.500
 109714422.796 8  85491851.98246                  20877921.984
                  20877931.285                          49.800          37.700

 125251153.487 7  97598387.01644                  23834498.203
                  23834511.652                          43.900          26.700

 118527111.933 7  92358913.45845                  22554944.000
                  22554954.949                          45.300          33.500

 122596439.156 7  95529779.31044                  23329307.461
                  23329319.590                          44.500          27.100

 131069676.250 6 102132113.711 6                  24941689.586
  24941703.965    24941703.867                          39.200          36.800

 14  3 21  0 11 30.0000000  0 13G09G16G13G23G07G19G30G27G03G10G08G28
                                G05
 118503970.118 7  92340894.91945                  22550547.492
                  22550558.602                          45.200          30.500

 126265395.425 6  98388713.66543                  24027482.875
                  24027495.781                          40.900          23.200

 107821711.635 8  84017054.01346                  20517766.961
                  20517775.516                          48.400          41.100

 118295911.878 8  92178759.90545                  22510965.203
                  22510974.387                          48.100          31.200

 108523365.347 7  84563772.267 8                  20651279.383
  20651287.344    20651287.742                          46.900          48.800

 112458571.097 7  87630160.15146                  21400124.398
                  21400132.125                          46.700          39.800

 115075331.795 7  89669309.525 7  85933096.488 8  21898110.711
  21898122.730    21898122.785    21898122.598          46.500          47.700
        51.700
 117389332.560 7  91472243.162 7  87660927.460 8  22338398.148
  22338410.117    22338410.211    22338409.133          46.400          45.700
        49.600
 109734160.264 8  85507231.83546                  20881677.820
                  20881687.512                          49.300          37.700

 125316687.346 7  97649452.28544                  23846968.000
                  23846981.953                          42.400          26.600

 118457144.048 7  92304393.11845                  22541629.641
                  22541640.426                          45.500          34.000

 122519104.424 7  95469518.71444                  23314591.719
                  23314602.539                          43.900          25.800

 131052174.210 6 102118475.816 5                  24938359.633
  24938373.910    24938373.086                          40.100          35.800

 14  3 21  0 12  0.0000000  0 13G09G16G13G23G07G19G30G27G03G10G08G28
                                G05
 118415419.001 7  92271894.16344                  22533696.086
                  22533707.492                          44.800          29.900

 126366556.958 6  98467540.71043                  24046733.469
                  24046745.750                          41.300          23.000

 107874238.581 7  84057984.06046                  20527762.094
                  20527770.516                          47.300          40.800

 118398223.472 7  92258483.08045                  22530434.672
                  22530443.715                          47.500          32.300

 108487819.931 7  84536074.571 8                  20644515.102
  20644523.250    20644523.699                          47.600          48.400

 112426238.382 7  87604965.88646                  21393971.281
                  21393978.973                          47.400          38.500

 115010879.427 7  89619086.975 7  85884966.564 8  21885845.680
  21885857.895    21885858.215    21885857.379          45.300          47.300
        51.400
 117433448.866 7  91506619.494 7  87693871.434 8  22346793.859
  22346804.914    22346805.250    22346803.879          45.800          46.300
        50.100
 109754553.267 8  85523122.49546                  20885558.758
                  20885568.125                          48.900          37.900

 125382534.195 7  97700761.39744                  23859498.539
                  23859512.023                          42.700          24.700

 118387244.590 7  92249926.10545                  22528327.844
                  22528338.914                          45.700          33.400

 122442009.008 7  95409444.51144                  23299921.180
                  23299932.645                          44.800          27.000

 131035188.197 6 102105240.084 6                  24935126.813
  24935140.984    24935141.070                          41.600          37.700

 14  3 21  0 12 30.0000000  0 13G09G16G13G23G07G19G30G27G03G10G08G28
                                G05
 118326966.841 7  92202970.53345                  22516863.922
                  22516875.586                          44.400          30.400

 126467742.024 6  98546386.11443                  24065987.953
                  24066000.188                          41.600          22.600

 107927302.448 7  84099332.49646                  20537860.070
                  20537868.055                          46.800          40.600

 118500815.296 7  92338424.62745                  22549957.000
                  22549966.785                          47.500          31.700

 108452506.961 7  84508558.002 8                  20637795.148
  20637803.340    20637803.594                          47.100          48.400

 112394523.010 7  87580252.67146                  21387935.719
                  21387943.355                          46.600          38.500

 114946572.121 7  89568977.465 7  85836944.960 8  21873608.578
  21873620.547    21873620.684    21873619.793          46.400          47.700
        51.300
 117478111.533 7  91541421.540 7  87727223.398 8  22355292.578
  22355304.172    22355304.176    22355302.980          46.700          46.400
        50.300
 109775601.069 8  85539523.37946                  20889563.750
                  20889572.816                          48.100          38.100

 125448691.086 7  97752312.09343                  23872088.578
                  23872102.492                          42.800          22.500

 118317414.067 7  92195512.81345                  22515039.836
                  22515050.410                          45.800          33.600

 122365153.193 7  95349557.09144                  23285294.625
                  23285306.672                          43.200          27.100

 131018718.371 6 102092406.516 6                  24931992.398
  24932007.441    24932006.367                          40.600          39.200

 14  3 21  0 13  0.0000000  0 13G09G16G13G23G07G19G30G27G03G10G08G28
                                G05
 118238615.108 7  92134125.14844                  22500051.023
                  22500062.965                          43.000          28.900

 126568949.771 6  98625249.21043                  24085247.289
                  24085259.637                          41.800          22.300

 107980902.588 7  84141098.80946                  20548060.328
                  20548067.906                          47.200          40.800

 118603685.104 7  92418582.77145                  22569533.117
                  22569542.195                          47.300          31.200

 108417427.802 7  84481223.609 8                  20631119.797
  20631127.945    20631128.465                          47.100          48.800

 112363426.599 7  87556021.75646                  21382018.406
                  21382026.363                          47.500          38.600

 114882411.005 7  89518981.866 7  85789032.527 8  21861398.531
  21861410.777    21861411.082    21861410.129          46.000          47.400
        51.500
 117523319.324 7  91576648.353 7  87760982.433 8  22363895.359
  22363906.840    22363907.313    22363906.234          46.000          46.600
        51.000
 109797303.168 7  85556434.11646                  20893693.516
                  20893702.988                          47.700          37.800

 125515155.225 7  97804102.23744                  23884736.164
                  23884750.195                          42.400          25.600

 118247653.177 7  92141153.77345                  22501764.586
                  22501775.438                          46.600          33.700

 122288537.642 7  95289856.85244                  23270715.531
                  23270727.313                          45.700          25.800

 131002765.051 6 102079975.358 6                  24928955.813
  24928971.477    24928971.309                          40.700          39.200

 14  3 21  0 13 30.0000000  0 13G09G16G13G23G07G19G30G27G03G10G08G28
                                G05
 118150365.272 7  92065359.17544                  22483258.242
                  22483269.219                          44.500          29.700

 126670178.110 7  98704128.33143                  24104510.219
                  24104522.297                          42.100          22.600

 108035038.321 8  84183282.46146                  20558361.844
                  20558370.445                          48.700          40.500

 118706830.653 7  92498955.78245                  22589160.352
                  22589170.113                          47.700          31.000

 108382583.763 7  84454072.436 8                  20624489.359
  20624497.090    20624497.387                          47.200          48.800

 112332950.921 7  87532274.52446                  21376219.070
                  21376226.508                          47.800          38.300

 114818397.080 7  89469100.952 8  85741230.015 8  21849217.727
  21849229.059    21849229.465    21849228.980          45.800          48.000
        51.500
 117569070.801 7  91612298.818 7  87795147.465 8  22372602.203
  22372613.246    22372613.504    22372612.660          45.700          46.700
        50.800
 109819658.879 7  85573854.16446                  20897947.734
                  20897956.926                          47.400          37.600

 125581923.996 7  97856129.68644                  23897442.398
                  23897455.945                          43.200          24.700

 118177962.836 7  92086849.70045                  22488503.211
                  22488513.527                          46.200          33.600

 122212163.335 7  95230344.64244                  23256181.656
                  23256193.723                          45.200          27.400

 130987328.704 6 102067947.066 6                  24926019.539
  24926033.918    24926033.754                          39.600          37.300

 14  3 21  0 14  0.0000000  0 13G09G16G13G23G07G19G30G27G03G10G08G28
                                G05
 118062217.833 7  91996672.96045                  22466483.508
                  22466495.027                          44.200          30.200

 126771424.985 6  98783021.90543                  24123776.656
                  24123788.352                          39.800          22.600

 108089706.787 8  84225881.22446                  20568764.469
                  20568773.434                          49.100          40.900

 118810249.173 8  92579541.51945                  22608841.195
                  22608850.102                          49.100          30.500

 108347975.120 7  84427104.694 8                  20617903.516
  20617911.504    20617911.789                          47.000          48.800

 112303096.697 7  87509011.54446                  21370537.813
                  21370545.410                          47.900          37.200

 114754530.519 7  89419334.870 7  85693537.539 8  21837063.891
  21837076.414    21837076.035    21837075.961          45.800          47.000
        51.700
 117615363.774 7  91648371.242 7  87829716.862 8  22381410.859
  22381422.563    22381423.133    22381422.410          46.600          45.800
        51.200
 109842666.531 7  85591782.20946                  20902325.719
                  20902335.352                          46.200          37.500

 125648993.929 6  97908391.90143                  23910203.891
                  23910218.641                          39.900          23.000

 118108343.040 7  92032600.59845                  22475255.117
                  22475265.508                          46.900          33.800

 122136030.174 7  95171020.29144                  23241693.930
                  23241705.391                          45.400          26.500

 130972408.618 6 102056321.103 6                  24923179.352
