     2.11           OBSERVATION DATA    G (GPS)             RINEX VERSION / TYPE
teqc  2014Jan16     NOAA/NOS/NGS/CORS   20140315 00:18:33UTCPGM / RUN BY / DATE
Solaris x86 5.10|AMD64|cc SC5.8 -xarch=amd64|=+|=+          COMMENT
   0.000      (antenna height)                              COMMENT
 +39.99147598 (latitude)                                    COMMENT
-105.26107939 (longitude)                                   COMMENT
1655.057      (elevation)                                   COMMENT
BIT 2 OF LLI FLAGS DATA COLLECTED UNDER A/S CONDITION       COMMENT
DSRC (COGO code)                                            COMMENT
DSRC                                                        MARKER NAME
DSRC                                                        MARKER NUMBER
Seth I. Gutman      ESRL                                    OBSERVER / AGENCY
5051K72749          TRIMBLE NETR9       4.60                REC # / TYPE / VERS
1441107284          TRM57971.00     NONE                    ANT # / TYPE
 -1288338.0320 -4721989.8640  4078321.1770                  APPROX POSITION XYZ
        0.0000        0.0000        0.0000                  ANTENNA: DELTA H/E/N
     1     1                                                WAVELENGTH FACT L1/2
    11    L1    L2    L5    C1    P1    C2    P2    C5    S1# / TYPES OF OBSERV
          S2    S5                                          # / TYPES OF OBSERV
    30.0000                                                 INTERVAL
    16                                                      LEAP SECONDS
 SNR is mapped to RINEX snr flag value [0-9]                COMMENT
  L1 & L2: min(max(int(snr_dBHz/6), 0), 9)                  COMMENT
teqc windowed: start @ 2014 Mar 14 00:00:00.000             COMMENT
teqc windowed: delta = 86400.000 sec                        COMMENT
teqc edited: all SBAS satellites excluded                   COMMENT
teqc edited: all Galileo satellites excluded                COMMENT
teqc edited: all Compass satellites excluded                COMMENT
teqc edited: all QZSS satellites excluded                   COMMENT
  2014     3    14     0     0    0.0000000     GPS         TIME OF FIRST OBS
                                                            END OF HEADER
 14  3 14  0  0  0.0000000  0 12G09G16G23G13G07G19G30G27G03G10G08G28
 125810715.351 6  98034487.41343                  23940989.391
                  23941003.141                          41.500          22.600

 118232983.111 7  92129749.45945                  22498959.211
                  22498966.605                          46.300          31.900

 111084594.605 8  86559574.16246                  21138674.734
                  21138680.691                          49.800          38.500

 105415868.125 8  82142412.51946                  20059954.102
                  20059960.309                          48.500          41.200

 112081140.786 8  87336103.259 7                  21328310.664
  21328318.203    21328318.477                          48.400          47.600

 116933955.551 7  91117428.54145                  22251768.625
                  22251775.973                          45.800          34.400

 120016440.603 7  93519396.238 7  89622744.908 8  22838353.336
  22838364.305    22838364.098    22838364.434          47.400          43.800
        48.800
 115729922.438 8  90179178.315 7  86421738.495 8  22022632.453
  22022641.203    22022641.203    22022640.773          48.600          47.100
        50.900
 110265138.440 7  85921009.14646                  20982737.383
                  20982745.172                          47.100          37.600

 121276657.147 7  94501429.65944                  23078186.344
                  23078197.711                          44.000          28.100

 124502298.988 7  97014918.43144                  23691994.430
                  23692006.891                          42.500          27.300

 129419964.412 6 100846863.86053                  24627819.773
                  24627835.215                          41.100          20.100

 14  3 14  0  0 30.0000000  0 12G09G16G23G13G07G19G30G27G03G10G08G28
 125717415.867 7  97961786.73944                  23923235.102
                  23923248.160                          42.700          26.500

 118325399.462 7  92201762.17145                  22516545.922
                  22516552.879                          45.800          31.400

 111156804.723 7  86615841.74046                  21152415.703
                  21152421.746                          47.200          38.200

 105422963.275 8  82147941.22246                  20061304.273
                  20061310.484                          48.000          41.700

 112029791.713 7  87296091.053 7                  21318539.313
  21318546.254    21318546.621                          46.000          47.200

 116858565.845 7  91058683.44145                  22237421.758
                  22237429.492                          45.900          34.900

 119946423.319 7  93464837.454 7  89570459.433 8  22825028.273
  22825039.949    22825040.609    22825040.242          46.400          44.500
        48.900
 115726965.347 7  90176874.102 7  86419530.305 8  22022069.570
  22022078.074    22022078.109    22022076.563          44.700          47.300
        50.200
 110233481.160 7  85896341.18046                  20976713.734
                  20976720.949                          45.800          36.700

 121309208.433 7  94526794.27344                  23084381.125
                  23084392.383                          42.700          27.200

 124428109.913 7  96957108.98044                  23677878.469
                  23677890.246                          43.500          29.200

 129326389.652 6 100773948.84843                  24610013.469
                  24610029.648                          40.900          21.800

 14  3 14  0  1  0.0000000  0 12G09G16G23G13G07G19G30G27G03G10G08G28
 125624146.063 6  97889109.22744                  23905486.164
                  23905499.215                          41.800          25.900

 118418010.666 7  92273926.70845                  22534168.852
                  22534176.547                          45.100          31.800

 111229458.775 8  86672455.23546                  21166241.750
                  21166247.602                          49.900          38.500

 105430618.095 8  82153906.01346                  20062760.625
                  20062766.980                          48.200          41.100

 111978607.631 7  87256207.408 7                  21308799.273
  21308806.652    21308806.906                          46.800          47.000

 116783597.491 7  91000266.65745                  22223156.352
                  22223162.441                          46.300          35.200

 119876511.124 7  93410360.558 7  89518252.437 8  22811724.938
  22811736.902    22811737.137    22811736.418          45.800          45.100
        48.900
 115724605.263 7  90175035.099 8  86417767.937 8  22021620.383
  22021629.289    22021630.066    22021627.645          46.000          48.000
        50.300
 110202452.159 7  85872162.78146                  20970808.805
                  20970816.656                          47.000          37.600

 121342267.141 7  94552554.29444                  23090671.586
                  23090683.605                          43.700          28.700

 124353957.095 7  96899327.71844                  23663766.156
                  23663778.508                          43.000          28.600

 129232978.437 6 100701161.21642                  24592237.203
                  24592253.012                          39.800          16.300

 14  3 14  0  1 30.0000000  0 12G09G16G23G13G07G19G30G27G03G10G08G28
 125530906.051 6  97816454.97644                  23887742.398
                  23887756.383                          40.800          25.100

 118510814.182 7  92346241.11645                  22551829.109
                  22551836.578                          43.400          32.100

 111302554.845 7  86729413.17246                  21180151.727
                  21180157.332                          47.000          37.400

 105438832.714 7  82160307.01646                  20064323.547
                  20064330.344                          46.700          40.900

 111927588.669 7  87216452.429 7                  21299089.953
  21299097.445    21299098.281                          45.700          47.300

 116709053.167 7  90942180.27145                  22208971.383
                  22208977.195                          43.700          35.400

 119806703.952 7  93355965.484 7  89466123.848 8  22798440.859
  22798452.887    22798452.891    22798451.820          44.500          44.900
        49.700
 115722842.107 7  90173661.238 7  86416451.337 8  22021285.070
  22021293.133    22021293.922    22021292.199          44.500          47.600
        50.000
 110172052.464 7  85848474.75846                  20965024.180
                  20965032.098                          47.000          37.500

 121375830.908 7  94578707.82744                  23097059.383
                  23097069.215                          43.200          26.000

 124279840.166 7  96841574.48144                  23649662.133
                  23649674.102                          43.000          27.600

 129139731.708 6 100628501.79443                  24574493.492
                  24574510.059                          39.900          22.200

 14  3 14  0  2  0.0000000  0 12G09G16G23G13G07G19G30G27G03G10G08G28
 125437696.997 6  97743824.76143                  23870004.555
                  23870019.008                          39.900          23.000

 118603807.526 7  92418703.43345                  22569525.164
                  22569532.008                          44.400          31.100

 111376091.989 8  86786714.80646                  21194144.797
                  21194150.797                          49.000          38.300

 105447608.471 8  82167145.28046                  20065993.648
                  20066000.570                          48.300          40.900

 111876736.070 8  87176827.078 7                  21289413.352
  21289420.645    21289421.102                          48.300          46.700

 116634936.600 7  90884427.20246                  22194866.586
                  22194873.305                          44.900          36.400

 119737002.655 7  93301652.914 7  89414074.324 8  22785176.734
  22785188.555    22785189.305    22785188.586          46.200          43.000
        49.600
 115721676.859 7  90172753.270 7  86415581.210 8  22021063.336
  22021071.586    22021071.480    22021070.813          44.600          47.600
        50.700
 110142284.056 7  85825278.63346                  20959358.969
                  20959366.992                          47.500          37.300

 121409898.603 7  94605254.06144                  23103541.898
                  23103552.410                          43.200          26.700

 124205759.737 6  96783849.65344                  23635563.781
                  23635576.160                          40.900          25.000

 129046651.191 6 100555971.91143                  24556779.039
                  24556796.488                          39.600          19.000

 14  3 14  0  2 30.0000000  0 12G09G16G23G13G07G19G30G27G03G10G08G28
 125344519.259 6  97671219.09844                  23852275.695
                  23852287.445                          40.200          24.700

 118696988.395 7  92491311.87645                  22587256.672
                  22587263.820                          44.100          30.700

 111450068.446 7  86844358.75146                  21208222.570
                  21208228.941                          47.600          37.800

 105456945.438 7  82174420.84946                  20067770.938
                  20067777.605                          47.500          39.400

 111826050.018 7  87137331.495 7                  21279768.633
  21279775.848    21279776.309                          45.400          46.900

 116561250.417 7  90827009.50445                  22180844.672
                  22180851.574                          44.100          34.900

 119667407.403 7  93247422.962 7  89362104.002 8  22771933.164
  22771944.473    22771944.914    22771944.781          47.100          43.800
        49.900
 115721109.470 7  90172311.176 7  86415157.533 8  22020955.016
  22020963.730    22020963.922    22020963.316          44.500          47.000
        50.500
 110113148.185 7  85802575.38846                  20953814.539
                  20953822.469                          45.900          37.300

 121444467.948 7  94632191.17544                  23110120.070
                  23110131.637                          42.400          29.800

 124131715.819 7  96726153.32744                  23621476.039
                  23621486.379                          42.000          25.600

 128953737.866 6 100483572.18743                  24539098.070
                  24539115.727                          37.400          22.300

 14  3 14  0  3  0.0000000  0 12G09G16G23G13G07G19G30G27G03G10G08G28
 125251373.557 5  97598638.17543                  23834545.789
                  23834562.551                          34.800          22.000

 118790353.940 7  92564064.21045                  22605023.492
                  22605030.680                          43.600          30.800

 111524482.773 7  86902343.88846                  21222383.188
                  21222388.523                          47.500          38.400

 105466843.859 8  82182133.90846                  20069653.992
                  20069660.484                          48.400          40.200

 111775531.523 7  87097966.476 7                  21270155.094
  21270162.824    21270163.379                          45.500          47.300

 116487997.838 7  90769929.67845                  22166905.211
                  22166912.254                          43.800          35.200

 119597918.511 7  93193275.909 7  89310213.101 8  22758710.555
  22758721.262    22758721.613    22758721.598          45.200          44.500
        49.800
 115721140.328 7  90172335.241 7  86415180.592 8  22020960.594
  22020969.469    22020970.230    22020968.684          44.300          47.400
        50.800
 110084646.172 7  85780366.07246                  20948390.719
                  20948398.449                          45.600          37.500

 121479537.146 7  94659517.79144                  23116794.203
                  23116805.879                          44.100          28.900

 124057708.633 6  96668485.56944                  23607390.875
                  23607402.414                          39.700          26.500

 128860992.959 6 100411303.87543                  24521449.984
                  24521467.160                          40.400          21.100

 14  3 14  0  3 30.0000000  0 12G09G16G23G13G07G19G30G27G03G10G08G28
 125158260.729 6  97526083.11543                  23816829.789
                  23816843.977                          38.600          22.600

 118883902.534 7  92636959.18845                  22622824.930
                  22622832.129                          43.400          30.400

 111599333.643 8  86960669.19446                  21236626.672
                  21236632.457                          50.300          38.100

 105477305.390 8  82190285.75446                  20071644.922
                  20071651.563                          48.200          41.100

 111725181.406 8  87058732.656 7                  21260573.867
  21260581.332    21260581.840                          49.000          46.700

 116415182.266 7  90713190.36545                  22153049.195
                  22153055.922                          45.500          35.000

 119528536.773 7  93139212.328 7  89258402.225 8  22745506.891
  22745518.152    22745518.660    22745518.469          46.800          44.600
        49.900
 115721770.088 7  90172825.975 7  86415650.892 8  22021080.789
  22021089.750    22021090.090    22021088.191          44.700          47.600
        50.800
 110056779.643 8  85758651.93546                  20943088.008
                  20943095.629                          48.000          36.900

 121515104.444 7  94687232.55644                  23123561.961
                  23123573.742                          43.700          28.500

 123983738.946 6  96610847.04344                  23593315.672
                  23593325.852                          41.900          26.400

 128768418.183 6 100339167.89543                  24503832.047
                  24503848.273                          38.800          20.100

 14  3 14  0  4  0.0000000  0 12G09G16G23G13G07G19G30G27G03G10G08G28
 125065181.156 6  97453553.86943                  23799116.266
                  23799130.879                          36.000          22.200

 118977631.327 7  92709994.58744                  22640661.484
                  22640668.336                          43.800          29.800

 111674619.050 8  87019333.08146                  21250952.977
                  21250958.484                          49.900          37.300

 105488329.733 8  82198876.15446                  20073742.688
                  20073749.441                          48.200          41.600

 111674999.912 8  87019630.237 7                  21251024.852
  21251032.359    21251032.996                          50.000          47.200

 116342806.256 7  90656793.55245                  22139275.758
                  22139283.316                          46.400          35.300

 119459262.203 7  93085232.295 7  89206671.375 8  22732324.242
  22732336.016    22732335.855    22732335.664          46.400          44.300
        49.500
 115722998.679 7  90173783.332 7  86416568.376 8  22021314.500
  22021323.164    22021323.258    22021322.414          44.700          46.800
        50.600
 110029549.828 8  85737433.95446                  20937906.297
                  20937913.973                          48.400          38.600

 121551167.606 7  94715333.68744                  23130425.453
                  23130436.156                          45.000          29.400

 123909806.269 7  96553237.37144                  23579248.703
                  23579257.320                          46.000          27.000

 128676014.555 7 100267165.50043                  24486250.109
                  24486265.758                          42.800          21.500

 14  3 14  0  4 30.0000000  0 12G09G16G23G13G07G19G30G27G03G10G08G28
 124972135.273 6  97381050.90643                  23781410.039
                  23781424.234                          37.000          21.700

 119071537.763 7  92783168.40644                  22658531.406
                  22658538.453                          45.100          29.900

 111750337.332 8  87078334.28746                  21265361.641
                  21265367.344                          50.600          38.300

 105499917.179 7  82207905.34046                  20075947.828
                  20075954.266                          47.900          41.000

 111624987.619 8  86980659.666 7                  21241507.648
  21241514.652    21241515.324                          49.800          47.900

 116270872.834 7  90600741.62745                  22125587.289
                  22125594.063                          45.500          35.800

 119390094.989 7  93031335.889 7  89155020.686 8  22719161.398
  22719173.824    22719173.879    22719173.453          44.800          44.600
        49.500
 115724826.120 7  90175207.337 7  86417933.043 8  22021662.063
  22021670.945    22021670.898    22021670.348          46.700          47.000
        50.900
 110002957.803 8  85716712.92646                  20932846.313
                  20932853.617                          49.200          37.900

 121587724.549 7  94743819.57144                  23137381.570
                  23137392.508                          44.700          28.900

 123835910.634 7  96495656.50344                  23565185.383
                  23565195.801                          44.500          26.200

 128583782.881 6 100195296.99842                  24468695.234
                  24468712.535                          36.800          15.600

 14  3 14  0  5  0.0000000  0 12G09G16G23G13G07G19G30G27G03G10G08G28
 124879124.029 5  97308574.87743                  23763709.133
                  23763725.008                          35.200          22.200

 119165619.554 7  92856478.85444                  22676434.008
                  22676442.137                          43.700          29.800

 111826486.947 8  87137671.60946                  21279852.820
                  21279858.184                          50.900          37.300

 105512068.291 8  82217373.74746                  20078259.758
                  20078266.465                          48.000          41.400

 111575145.314 8  86941821.542 7                  21232023.023
  21232029.652    21232030.215                          49.100          47.500

 116199385.016 7  90545036.93145                  22111984.008
                  22111989.863                          44.500          35.500

 119321035.622 7  92977523.553 7  89103450.536 8  22706021.328
  22706031.633    22706031.758    22706031.273          46.900          44.500
        49.100
 115727252.651 7  90177098.168 7  86419745.086 8  22022123.914
  22022132.246    22022132.504    22022131.660          46.200          47.000
        50.900
 109977004.888 8  85696489.90346                  20927907.148
                  20927914.879                          49.400          37.500

 121624773.289 7  94772688.67044                  23144431.586
                  23144442.238                          44.300          28.700

 123762052.444 6  96438104.80844                  23551128.664
                  23551141.242                          40.600          26.800

 128491724.897 6 100123563.68243                  24451179.430
                  24451194.074                          40.000          22.500

 14  3 14  0  5 30.0000000  0 12G09G16G23G13G07G19G30G27G03G10G08G28
 124786147.925 6  97236126.28043                  23746017.984
                  23746031.668                          39.500          21.500

 119259874.235 7  92929924.01545                  22694370.727
                  22694378.309                          45.000          31.300

 111903065.905 8  87197343.48246                  21294425.570
                  21294430.129                          50.000          37.300

 105524783.541 8  82227281.73446                  20080679.484
                  20080685.605                          48.100          41.300

 111525473.649 8  86903116.402 7                  21222570.484
  21222577.453    21222577.879                          49.600          47.000

 116128345.830 7  90489681.81545                  22098465.445
                  22098471.355                          46.200          34.700

 119252084.447 7  92923795.495 7  89051961.175 8  22692899.695
  22692910.578    22692910.488    22692910.242          46.000          44.100
        49.500
 115730278.500 7  90179455.991 7  86422004.665 8  22022699.953
  22022708.520    22022708.930    22022707.617          46.500          47.600
        50.700
 109951692.480 8  85676765.98546                  20923090.969
                  20923098.484                          48.700          38.100

 121662311.882 7  94801939.51844                  23151574.297
                  23151585.309                          42.700          27.900

 123688231.964 7  96380582.55944                  23537082.469
                  23537092.352                          44.300          26.400

 128399841.390 6 100051966.54043                  24433694.320
                  24433708.785                          40.900          19.300

 14  3 14  0  6  0.0000000  0 12G09G16G23G13G07G19G30G27G03G10G08G28
 124693208.190 7  97163706.01843                  23728333.000
                  23728344.684                          43.800          23.200

 119354299.886 7  93003502.40445                  22712339.172
                  22712346.980                          45.500          31.400

 111980073.831 8  87257349.61046                  21309079.211
                  21309085.066                          50.100          37.800

 105538063.972 7  82237630.12046                  20083206.813
                  20083213.250                          47.600          41.300

 111475973.660 8  86864545.023 7                  21213150.961
  21213157.832    21213158.316                          49.100          47.300

 116057758.764 7  90434679.00045                  22085032.914
                  22085039.047                          45.400          34.700

 119183242.405 7  92870152.481 7  89000553.317 8  22679798.898
  22679810.375    22679810.285    22679810.211          44.700          44.100
        49.900
 115733904.278 7  90182281.284 7  86424712.253 8  22023390.000
  22023398.438    22023398.988    22023397.617          46.800          47.800
        51.300
 109927021.942 8  85657542.22546                  20918396.242
                  20918403.543                          48.000          37.600

 121700338.773 7  94831570.82544                  23158811.586
                  23158822.129                          43.200          28.400

 123614449.559 7  96323089.93244                  23523040.977
                  23523051.734                          42.900          26.900

 128308134.033 6  99980506.51143                  24416241.727
                  24416256.848                          39.200          21.300

 14  3 14  0  6 30.0000000  0 12G09G16G23G13G07G19G30G27G03G10G08G28
 124600304.548 7  97091313.85243                  23710653.828
                  23710665.699                          44.300          20.900

 119448893.489 7  93077211.66645                  22730340.398
                  22730347.617                          45.400          30.800

 112057508.143 8  87317687.99146                  21323814.586
                  21323821.180                          49.300          37.900

 105551908.504 7  82248418.08346                  20085841.484
                  20085848.227                          47.800          41.300

 111426645.217 8  86826107.323 7                  21203763.930
  21203770.699    21203771.145                          49.100          46.700

 115987626.004 7  90380030.18245                  22071687.250
                  22071693.742                          47.200          35.800

 119114508.973 7  92816594.095 7  88949226.558 8  22666718.648
  22666731.055    22666731.117    22666731.102          45.900          44.700
        49.700
 115738129.224 7  90185573.476 7  86427867.257 8  22024193.656
  22024202.570    22024203.340    22024202.086          46.400          47.500
        51.000
 109902994.124 8  85638819.28146                  20913823.266
                  20913831.281                          48.000          38.100

 121738850.784 7  94861580.15944                  23166140.352
                  23166148.914                          44.500          26.500

 123540704.690 7  96265626.57044                  23509007.156
                  23509018.230                          43.100          27.600

 128216603.133 6  99909184.04942                  24398824.406
                  24398839.227                          39.200          17.400

 14  3 14  0  7  0.0000000  0 12G09G16G23G13G07G19G30G27G03G10G08G28
 124507438.491 7  97018950.88643                  23692980.289
                  23692993.832                          43.300          22.200

 119543652.907 7  93151050.13645                  22748372.305
                  22748379.477                          45.200          30.600

 112135367.512 8  87378357.55946                  21338630.805
                  21338637.133                          48.900          37.400

 105566318.761 7  82259646.86246                  20088583.320
                  20088589.996                          47.900          40.900

 111377489.691 8  86787804.376 7                  21194409.836
  21194417.078    21194417.578                          49.700          47.000

 115917950.869 7  90325737.95345                  22058428.383
                  22058435.410                          47.400          35.400

 119045885.205 7  92763121.157 7  88897981.702 8  22653660.609
  22653672.000    22653672.121    22653672.281          45.200          45.600
        49.700
 115742954.173 7  90189333.193 8  86431470.316 8  22025111.492
  22025120.930    22025121.250    22025120.406          46.600          48.000
        51.200
 109879610.644 7  85620598.41846                  20909373.469
                  20909381.824                          47.600          37.500

 121777846.798 7  94891966.59644                  23173561.188
                  23173570.500                          44.300          27.000

 123466998.335 7  96208193.24444                  23494981.984
                  23494993.297                          43.600          28.700

 128125250.803 6  99838000.83742                  24381439.430
                  24381455.848                          39.200          17.400

 14  3 14  0  7 30.0000000  0 12G09G16G23G13G07G19G30G27G03G10G08G28
 124414610.278 7  96946617.45244                  23675316.305
                  23675328.813                          44.000          24.000

 119638575.836 7  93225016.03444                  22766435.180
                  22766442.449                          45.900          29.800

 112213650.122 8  87439356.94746                  21353528.000
                  21353533.820                          49.100          37.000

 105581294.939 8  82271316.60846                  20091432.953
                  20091439.418                          48.300          41.500

 111328507.618 8  86749636.582 7                  21185089.156
  21185095.629    21185096.344                          48.700          47.000

 115848736.158 7  90271804.51045                  22045257.172
                  22045263.227                          47.100          35.500

 118977371.476 7  92709733.965 7  88846819.003 8  22640622.703
  22640634.426    22640634.551    22640634.535          45.700          45.800
        49.800
 115748379.034 7  90193560.380 7  86435521.381 8  22026144.016
  22026152.777    22026153.082    22026151.887          47.000          47.300
        50.900
 109856872.685 7  85602880.56446                  20905046.523
                  20905053.992                          46.600          37.100

 121817324.515 7  94922728.39144                  23181073.773
                  23181082.766                          44.700          28.000

 123393330.474 7  96150789.88344                  23480963.047
                  23480974.785                          43.200          28.000

 128034077.990 6  99766957.28343                  24364090.281
                  24364102.598                          39.500          20.100

 14  3 14  0  8  0.0000000  0 12G09G16G23G13G07G19G30G27G03G10G08G28
 124321820.612 7  96874314.04243                  23657658.039
                  23657671.406                          43.300          23.000

 119733659.761 7  93299107.37244                  22784529.281
                  22784536.047                          45.500          29.700

 112292353.743 8  87500684.39946                  21368504.422
                  21368510.148                          49.500          38.000

 105596836.684 8  82283427.06246                  20094391.125
                  20094397.551                          49.200          41.400

 111279699.599 8  86711604.409 7                  21175800.805
  21175807.492    21175808.273                          49.200          47.000

 115779985.184 7  90218232.42645                  22032173.922
                  22032180.000                          45.400          35.200

 118908967.739 7  92656432.486 7  88795738.438 8  22627606.203
  22627617.430    22627617.500    22627617.367          45.200          45.200
        49.400
 115754403.460 7  90198254.750 7  86440020.168 8  22027290.516
  22027299.266    22027299.402    22027298.383          45.300          47.100
        51.700
 109834780.568 7  85585665.95946                  20900842.938
                  20900850.320                          47.600          37.900

 121857281.634 7  94953863.75344                  23188676.711
                  23188687.320                          43.800          28.100

 123319701.018 7  96093416.44944                  23466952.383
                  23466963.563                          44.600          29.800

 127943085.687 6  99696054.54943                  24346774.602
                  24346788.547                          39.000          19.900

 14  3 14  0  8 30.0000000  0 12G09G16G23G13G07G19G30G27G03G10G08G28
 124229070.366 7  96802041.41344                  23640009.211
                  23640022.285                          42.700          24.700

 119828902.593 7  93373322.54544                  22802653.141
                  22802660.207                          45.200          29.300

 112371477.243 8  87562339.02946                  21383561.430
                  21383566.367                          48.400          36.500

 105612945.083 7  82295979.06446                  20097456.195
                  20097463.223                          47.900          41.800

 111231066.409 7  86673708.482 7                  21166546.156
  21166552.961    21166553.453                          47.600          47.500

 115711700.768 7  90165023.88545                  22019179.602
                  22019185.578                          45.200          34.900

 118840674.759 7  92603217.310 7  88744740.575 8  22614610.008
  22614621.773    22614621.691    22614621.211          45.400          45.900
        49.300
 115761027.812 7  90203416.612 7  86444966.954 8  22028551.297
  22028559.766    22028559.617    22028559.773          47.300          47.200
        51.300
 109813336.027 7  85568955.94946                  20896761.617
                  20896770.340                          46.000          38.100

 121897715.989 7  94985370.97944                  23196371.180
                  23196382.711                          42.400          27.900

 123246110.572 7  96036073.39244                  23452947.891
                  23452959.281                          44.500          29.600

 127852275.413 6  99625293.64643                  24329493.727
                  24329508.453                          38.900          18.600

 14  3 14  0  9  0.0000000  0 12G09G16G23G13G07G19G30G27G03G10G08G28
 124136360.059 7  96729799.83844                  23622366.117
                  23622379.559                          43.000          24.800

 119924301.912 7  93447659.64244                  22820807.273
                  22820814.066                          44.800          29.400

 112451018.711 7  87624319.33446                  21398697.398
                  21398703.305                          47.000          37.100

 105629619.743 8  82308972.32146                  20100628.797
                  20100635.953                          48.300          41.300

 111182608.749 8  86635949.326 7                  21157325.328
  21157332.340    21157332.996                          49.100          47.200

 115643885.510 7  90112180.91645                  22006275.742
                  22006281.641                          47.000          35.700

 118772492.802 7  92550088.644 7  88693825.620 8  22601635.766
  22601646.863    22601646.750    22601646.211          46.000          46.000
        49.600
 115768251.862 7  90209045.787 7  86450361.566 8  22029925.711
  22029934.742    22029934.418    22029934.633          47.400          47.500
        51.400
 109792540.058 8  85552751.33546                  20892804.969
                  20892812.594                          48.900          38.200

 121938625.289 7  95017248.31144                  23204156.555
                  23204167.238                          43.900          28.500

 123172559.323 7  95978760.89844                  23438952.148
                  23438962.637                          46.000          29.300

 127761647.741 6  99554674.98643                  24312248.195
                  24312261.852                          40.400          21.300

 14  3 14  0  9 30.0000000  0 12G09G16G23G13G07G19G30G27G03G10G08G28
 124043690.234 6  96657589.87843                  23604731.594
                  23604744.191                          40.600          22.900

 120019855.245 7  93522116.75144                  22838990.000
                  22838996.922                          43.700          29.100

 112530976.573 7  87686624.13846                  21413912.820
                  21413919.008                          47.900          38.000

 105646861.284 8  82322407.28446                  20103909.891
                  20103916.684                          48.600          41.300

 111134327.172 8  86598327.378 8                  21148137.414
  21148144.047    21148144.867                          49.100          48.000

 115576542.492 7  90059705.93046                  21993460.398
                  21993466.566                          46.700          36.000

 118704422.362 7  92497046.867 7  88642993.932 8  22588681.617
  22588693.602    22588693.348    22588692.746          45.700          44.900
        49.500
 115776075.706 7  90215142.291 8  86456204.070 8  22031414.648
  22031423.500    22031423.867    22031422.965          46.600          48.300
        51.900
 109772393.615 7  85537052.83746                  20888970.891
                  20888978.422                          47.800          38.300

 121980007.753 7  95049494.34944                  23212030.656
                  23212042.105                          43.400          27.800

 123099047.477 7  95921479.10245                  23424963.203
                  23424973.484                          45.200          30.300

 127671204.221 6  99484199.85343                  24295036.938
                  24295051.090                          40.600          20.600

 14  3 14  0 10  0.0000000  0 12G09G16G23G13G07G19G30G27G03G10G08G28
 123951061.911 6  96585412.24143                  23587104.898
                  23587117.277                          41.700          23.200

 120115560.615 7  93596692.32944                  22857202.508
                  22857209.297                          44.600          28.800

 112611349.048 8  87749252.01546                  21429207.336
                  21429213.723                          48.500          38.300

 105664670.194 8  82336284.36446                  20107299.328
                  20107305.750                          48.600          41.500

 111086222.728 8  86560843.455 7                  21138983.195
  21138990.957    21138991.563                          48.400          47.900

 115509674.809 7  90007601.33345                  21980735.391
                  21980741.945                          46.300          35.800

 118636464.048 7  92444092.446 7  88592245.984 8  22575749.688
  22575761.191    22575760.883    22575760.633          45.300          45.200
        50.400
 115784499.464 7  90221706.269 8  86462494.565 8  22033017.742
  22033026.656    22033027.051    22033026.090          46.500          48.100
        51.800
 109752897.920 8  85521861.42146                  20885261.023
                  20885268.090                          48.000          37.600

 122021861.254 7  95082107.41244                  23219995.125
                  23220006.332                          44.500          29.100

 123025575.393 7  95864228.29144                  23410981.992
                  23410991.984                          44.000          27.500

 127580946.140 6  99413869.20343                  24277861.906
                  24277873.984                          39.900          19.300

 14  3 14  0 10 30.0000000  0 12G09G16G23G13G07G19G30G27G03G10G08G28
 123858475.771 6  96513267.48943                  23569485.375
                  23569498.621                          39.400          22.900

 120211415.601 7  93671384.49744                  22875443.586
                  22875449.848                          45.600          29.400

 112692134.074 8  87812201.33746                  21444580.250
                  21444586.852                          49.100          38.100

 105683046.486 7  82350603.55546                  20110795.867
                  20110802.809                          47.300          40.900

 111038296.126 8  86523498.115 7                  21129863.125
  21129869.824    21129870.633                          48.500          47.500

 115443285.133 7  89955869.21046                  21968101.781
                  21968108.023                          46.100          36.400

 118568618.181 7  92391225.645 7  88541582.004 8  22562838.625
  22562850.855    22562850.539    22562850.406          44.600          45.500
        50.800
 115793522.939 7  90228737.578 8  86469232.896 8  22034734.539
  22034743.828    22034743.633    22034743.027          47.200          48.200
        52.200
 109734053.845 7  85507177.75746                  20881674.734
                  20881682.832                          47.600          37.600

 122064183.441 7  95115085.67744                  23228049.305
                  23228059.836                          44.300          29.000

 122952143.204 7  95807008.56944                  23397008.227
                  23397018.828                          43.800          28.700

 127490874.368 7  99343683.74543                  24260721.047
                  24260733.547                          42.100          21.500

 14  3 14  0 11  0.0000000  0 12G09G16G23G13G07G19G30G27G03G10G08G28
 123765932.946 6  96441156.41244                  23551874.484
                  23551887.102                          40.900          24.200

 120307418.210 7  93746191.70244                  22893712.031
                  22893718.352                          46.500          29.700

 112773330.712 8  87875471.39846                  21460031.430
                  21460037.703                          48.200          37.200

 105701990.625 7  82365365.22746                  20114400.453
                  20114407.535                          46.600          41.300

 110990548.227 8  86486292.021 8                  21120776.984
  21120783.785    21120784.629                          48.900          48.100

 115377376.246 7  89904511.71945                  21955559.906
                  21955565.250                          46.000          35.700

 118500885.458 7  92338447.010 7  88491002.511 8  22549949.484
  22549960.879    22549961.063    22549960.754          44.700          45.300
        50.800
 115803146.207 7  90236236.247 7  86476419.128 8  22036565.781
  22036574.668    22036575.137    22036573.648          46.500          47.600
        51.400
 109715862.397 7  85493002.61946                  20878213.227
                  20878221.023                          47.500          36.900

 122106972.464 7  95148427.69544                  23236191.055
                  23236203.098                          42.400          28.200

 122878751.256 7  95749820.20744                  23383041.703
                  23383052.281                          44.000          28.800

 127400990.266 6  99273644.52443                  24243615.633
                  24243628.730                          41.700          20.400

 14  3 14  0 11 30.0000000  0 12G09G16G23G13G07G19G30G27G03G10G08G28
 123673433.618 6  96369079.27244                  23534272.664
                  23534285.855                          39.500          26.400

 120403565.530 7  93821111.66444                  22912008.313
                  22912014.750                          47.000          29.200

 112854936.589 8  87939060.35446                  21475560.180
                  21475566.652                          48.100          37.400

 105721502.351 7  82380569.17446                  20118114.023
                  20118120.508                          47.800          41.100

 110942979.061 8  86449225.194 7                  21111724.844
  21111732.117    21111732.566                          50.000          47.500

 115311950.854 7  89853530.97545                  21943109.406
                  21943116.203                          46.800          35.700

 118433265.864 7  92285756.522 7  88440507.491 8  22537081.711
  22537093.582    22537093.777    22537093.703          45.800          45.900
        50.700
 115813368.726 7  90244201.871 8  86484052.863 8  22038511.359
  22038519.887    22038520.402    22038518.855          47.500          48.000
        51.900
 109698324.417 8  85479336.67946                  20874876.250
                  20874883.223                          49.200          37.800

 122150225.722 7  95182131.47744                  23244422.320
                  23244434.340                          43.600          28.100

 122805399.711 7  95692663.31444                  23369082.828
                  23369094.008                          42.700          28.900

 127311294.373 7  99203752.01743                  24226547.781
                  24226559.570                          42.600          21.100

 14  3 14  0 12  0.0000000  0 12G09G16G23G13G07G19G30G27G03G10G08G28
 123580978.554 6  96297036.62244                  23516679.492
                  23516691.129                          40.600          24.300

 120499855.830 7  93896143.03644                  22930331.867
                  22930337.871                          46.600          29.700

 112936949.879 8  88002966.75746                  21491166.867
                  21491173.172                          48.200          37.700

 105741582.138 7  82396215.76146                  20121934.891
                  20121941.363                          47.300          41.800

 110895589.849 8  86412298.591 7                  21102707.102
  21102713.441    21102713.973                          49.300          47.900

 115247011.986 7  89802929.35045                  21930751.969
                  21930758.879                          45.200          35.900

 118365759.954 7  92233154.642 7  88390097.372 8  22524235.688
  22524247.586    22524248.063    22524247.637          44.100          45.300
        50.700
 115824190.439 7  90252634.397 8  86492134.042 8  22040570.828
  22040578.730    22040579.801    22040578.430          46.300          48.200
        51.700
 109681440.793 7  85466180.65246                  20871662.898
                  20871670.242                          47.900          37.800

 122193940.981 7  95216195.29144                  23252740.781
                  23252752.441                          42.200          28.300

 122732088.603 7  95635537.94344                  23355132.945
                  23355143.672                          43.900          29.600

 127221788.600 7  99134007.60343                  24209515.320
                  24209527.734                          42.300          23.500

 14  3 14  0 12 30.0000000  0 12G09G16G23G13G07G19G30G27G03G10G08G28
 123488568.125 6  96225028.72544                  23499094.492
                  23499105.660                          41.700          26.200

 120596286.127 7  93971283.50444                  22948682.227
                  22948688.277                          46.100          29.000

 113019368.420 7  88067188.93146                  21506851.148
                  21506856.957                          47.800          36.700

 105762229.284 8  82412304.45446                  20125864.086
                  20125871.063                          48.500          41.900

 110848381.036 7  86375512.539 7                  21093723.914
  21093730.270    21093730.555                          47.900          47.000

 115182562.215 7  89752708.83345                  21918487.672
                  21918493.852                          46.300          35.800

 118298367.892 7  92180641.463 7  88339772.270 8  22511411.461
  22511423.285    22511423.566    22511423.203          45.700          45.500
        50.500
 115835610.850 7  90261533.446 7  86500662.289 8  22042744.117
  22042752.262    22042752.480    22042752.398          46.000          47.900
        51.600
 109665211.940 7  85453534.82246                  20868575.039
                  20868582.020                          47.400          37.700

 122238115.548 7  95250616.95544                  23261147.445
                  23261160.063                          43.800          28.000

 122658818.255 7  95578444.34445                  23341189.781
                  23341200.070                          43.700          30.800

 127132473.427 6  99064411.75543                  24192518.922
                  24192531.367                          41.700          21.500

 14  3 14  0 13  0.0000000  0 12G09G16G23G13G07G19G30G27G03G10G08G28
 123396203.830 6  96153056.83844                  23481517.969
                  23481529.199                          40.300          24.700

 120692854.894 7  94046531.86544                  22967058.047
                  22967065.168                          46.000          28.300

 113102191.288 8  88131726.17546                  21522611.625
                  21522618.160                          48.800          38.500

 105783445.358 8  82428836.46146                  20129900.852
                  20129908.012                          48.200          41.300

 110801354.176 8  86338868.276 7                  21084774.813
  21084781.508    21084781.719                          48.600          47.000

 115118604.967 7  89702872.09245                  21906317.227
                  21906323.125                          45.400          35.200

 118231090.960 7  92128217.995 7  88289533.135 8  22498609.258
  22498620.895    22498621.012    22498620.703          45.800          45.100
        50.200
 115847630.548 7  90270899.471 7  86509638.069 8  22045031.297
  22045039.680    22045039.844    22045039.531          47.300          47.800
        51.700
 109649639.364 8  85441400.37446                  20865611.531
                  20865618.965                          48.000          37.300

 122282748.028 6  95285395.43144                  23269640.703
                  23269650.828                          41.700          26.500

 122585589.666 7  95521383.27344                  23327254.297
                  23327265.059                          43.200          28.800

 127043350.713 6  98994965.89543                  24175558.102
                  24175571.039                          39.700          20.100

 14  3 14  0 13 30.0000000  0 12G09G16G23G13G07G19G30G27G03G10G08G28
 123303886.231 6  96081121.28943                  23463949.047
                  23463961.906                          39.400          23.500

 120789559.549 7  94121886.10044                  22985460.484
                  22985467.633                          45.800          29.900

 113185416.036 8  88196576.57546                  21538449.211
                  21538455.426                          49.000          37.300

 105805229.454 8  82445811.07946                  20134047.016
                  20134053.164                          48.500          41.500

 110754509.390 7  86302365.880 7                  21075859.977
  21075866.930    21075867.324                          46.800          47.000

 115055142.442 7  89653420.84746                  21894240.320
                  21894246.273                          45.400          36.200

 118163929.146 7  92075884.211 7  88239379.960 8  22485828.750
  22485840.063    22485840.234    22485840.160          45.000          45.600
        50.400
 115860248.840 7  90280731.921 8  86519060.845 8  22047432.398
  22047441.133    22047441.641    22047440.211          46.900          48.200
        51.200
 109634723.465 7  85429777.61846                  20862773.469
                  20862780.309                          46.800          38.100

 122327835.759 7  95320528.67844                  23278219.797
                  23278231.957                          42.300          26.500

 122512402.608 6  95464354.54644                  23313326.766
                  23313338.375                          41.900          28.800

 126954420.904 6  98925670.38243                  24158635.313
                  24158648.738                          39.400          20.600

 14  3 14  0 14  0.0000000  0 12G09G16G23G13G07G19G30G27G03G10G08G28
 123211615.831 6  96009222.51344                  23446390.469
                  23446402.734                          40.200          25.500

 120886397.780 7  94197344.42145                  23003888.500
                  23003895.582                          45.300          30.200

 113269040.716 8  88261738.60046                  21554362.375
                  21554368.742                          49.400          37.500

 105827581.528 8  82463228.29246                  20138300.211
                  20138306.633                          48.100          41.300

 110707847.402 7  86266005.935 7                  21066980.703
  21066987.148    21066987.551                          46.400          46.900

 114992177.587 7  89604357.40845                  21882258.609
                  21882265.070                          46.300          35.800

 118096882.645 7  92023640.295 7  88189312.898 8  22473070.055
  22473081.316    22473081.641    22473081.215          46.000          44.900
        50.500
 115873465.162 8  90291030.372 8  86528930.213 8  22049947.375
  22049956.180    22049956.496    22049954.949          48.000          48.100
        50.800
 109620465.138 7  85418667.27246                  20860059.703
                  20860067.566                          46.400          38.500

 122373376.439 6  95356014.83844                  23286886.773
                  23286897.090                          41.400          24.900

 122439256.993 7  95407358.10944                  23299407.688
                  23299418.887                          43.000          29.800

 126865685.044 6  98856525.96743                  24141748.703
                  24141761.074                          38.600          18.600

 14  3 14  0 14 30.0000000  0 12G09G16G23G13G07G19G30G27G03G10G08G28
 123119393.819 6  95937361.46644                  23428841.094
                  23428853.266                          40.100          25.600

 120983367.745 7  94272905.37744                  23022340.945
                  23022348.012                          44.300          29.800

 113353064.022 8  88327211.24746                  21570351.602
                  21570357.965                          49.100          37.100

 105850502.384 8  82481088.69746                  20142661.719
                  20142668.789                          48.200          41.900

 110661369.279 8  86229789.267 7                  21058135.906
  21058142.926    21058143.277                          48.400          47.200

 114929713.107 7  89555683.87046                  21870372.398
                  21870378.426                          46.300          36.600

 118029952.493 7  91971487.039 7  88139332.733 8  22460333.625
  22460344.863    22460345.188    22460344.473          44.900          46.100
        50.300
 115887279.817 7  90301795.038 7  86539246.360 8  22052575.836
  22052584.906    22052584.273    22052584.309          47.000          47.700
        51.600
 109606865.352 7  85408070.07146                  20857471.727
                  20857479.965                          47.800          38.400

 122419367.891 7  95391852.31344                  23295638.438
                  23295649.180                          42.500          26.400

 122366153.326 7  95350394.36644                  23285495.875
                  23285506.766                          43.600          29.400

 126777144.531 6  98787533.69343                  24124899.727
                  24124913.137                          38.900          21.700

 14  3 14  0 15  0.0000000  0 12G09G16G23G13G07G19G30G27G03G10G08G28
 123027220.559 6  95865538.36944                  23411301.781
                  23411313.648                          41.100          27.000

 121080467.028 7  94348567.12644                  23040818.516
                  23040825.387                          45.100          28.300

 113437483.598 8  88392992.68646                  21586416.109
                  21586421.938                          48.000          37.200

 105873991.178 8  82499391.64846                  20147131.695
                  20147138.031                          49.000          41.200

 110615075.873 8  86193716.532 7                  21049326.695
  21049333.188    21049333.539                          48.900          47.300

 114867751.681 7  89507402.31446                  21858580.883
                  21858586.891                          46.600          36.500

 117963138.668 7  91919424.431 7  88089439.418 8  22447619.203
  22447631.043    22447631.387    22447630.258          45.400          46.100
        50.000
 115901691.985 7  90313025.311 7  86550008.700 8  22055318.453
  22055327.254    22055327.242    22055326.988          47.500          47.900
        51.300
 109593924.773 8  85397986.53246                  20855009.188
                  20855016.484                          49.200          38.200

 122465807.520 7  95428038.98944                  23304475.313
                  23304487.258                          42.900          27.100

 122293091.836 7  95293463.48744                  23271593.063
                  23271602.742                          45.000          28.700

 126688800.072 6  98718694.22943                  24108088.766
                  24108099.289                          39.800          19.300

 14  3 14  0 15 30.0000000  0 12G09G16G23G13G07G19G30G27G03G10G08G28
 122935096.837 6  95793753.87444                  23393770.273
                  23393783.098                          40.900          27.000

 121177693.007 7  94424327.58344                  23059319.250
                  23059326.641                          43.800          27.800

 113522297.480 7  88459081.39045                  21602555.164
                  21602561.160                          47.700          35.400

 105898048.429 7  82518137.56046                  20151709.242
                  20151716.191                          47.300          41.400

 110568967.301 8  86157787.812 7                  21040552.555
  21040558.695    21040559.090                          49.100          47.100

 114806295.729 7  89459514.63746                  21846886.609
                  21846892.250                          46.200          37.000

 117896441.826 7  91867452.968 7  88039633.463 8  22434927.156
  22434939.309    22434939.688    22434938.324          45.800          46.300
        49.500
 115916701.390 7  90324720.964 8  86561217.039 8  22058174.781
  22058183.645    22058184.176    22058182.746          46.900          48.100
        51.000
 109581643.854 8  85388417.02646                  20852672.250
                  20852679.844                          48.700          37.700

 122512692.989 7  95464573.07344                  23313398.422
                  23313408.855                          43.900          28.300

